{
"type": "FeatureCollection",
"features": [
{ "type": "Feature", "properties": { "title": "Sweden", "url": "https://en.wikipedia.org/wiki/Sweden", "y": 59.35, "x": 18.067 }, "geometry": { "type": "Point", "coordinates": [ 18.067, 59.35 ] } },
{ "type": "Feature", "properties": { "title": "Stockholm Archipelago", "url": "https://en.wikipedia.org/wiki/Stockholm_archipelago", "y": 59.38778, "x": 18.73581 }, "geometry": { "type": "Point", "coordinates": [ 18.73581, 59.38778 ] } },
{ "type": "Feature", "properties": { "title": "Blekinge archipelago", "url": "https://en.wikipedia.org/wiki/Blekinge_archipelago", "y": 56.133, "x": 15.483 }, "geometry": { "type": "Point", "coordinates": [ 15.483, 56.133 ] } },
{ "type": "Feature", "properties": { "title": "Prangli", "url": "https://en.wikipedia.org/wiki/Prangli", "y": 59.62444, "x": 25.02083 }, "geometry": { "type": "Point", "coordinates": [ 25.02083, 59.62444 ] } },
{ "type": "Feature", "properties": { "title": "Harilaid (peninsula)", "url": "https://en.wikipedia.org/wiki/Harilaid_(peninsula)", "y": 58.483, "x": 21.85 }, "geometry": { "type": "Point", "coordinates": [ 21.85, 58.483 ] } },
{ "type": "Feature", "properties": { "title": "Tondisaar", "url": "https://en.wikipedia.org/wiki/Tondisaar", "y": 58.202, "x": 26.057 }, "geometry": { "type": "Point", "coordinates": [ 26.057, 58.202 ] } },
{ "type": "Feature", "properties": { "title": "Papilaid", "url": "https://en.wikipedia.org/wiki/Papilaid", "y": 58.683, "x": 23.417 }, "geometry": { "type": "Point", "coordinates": [ 23.417, 58.683 ] } },
{ "type": "Feature", "properties": { "title": "Pikknasv", "url": "https://en.wikipedia.org/wiki/Pikknasv", "y": 58.29917, "x": 22.91861 }, "geometry": { "type": "Point", "coordinates": [ 22.91861, 58.29917 ] } },
{ "type": "Feature", "properties": { "title": "Nootamaa", "url": "https://en.wikipedia.org/wiki/Nootamaa", "y": 58.32222, "x": 21.76417 }, "geometry": { "type": "Point", "coordinates": [ 21.76417, 58.32222 ] } },
{ "type": "Feature", "properties": { "title": "Ruhnu", "url": "https://en.wikipedia.org/wiki/Ruhnu", "y": 57.8, "x": 23.25 }, "geometry": { "type": "Point", "coordinates": [ 23.25, 57.8 ] } },
{ "type": "Feature", "properties": { "title": "Kreenholm", "url": "https://en.wikipedia.org/wiki/Kreenholm", "y": 59.35778, "x": 28.19722 }, "geometry": { "type": "Point", "coordinates": [ 28.19722, 59.35778 ] } },
{ "type": "Feature", "properties": { "title": "Sangelaid", "url": "https://en.wikipedia.org/wiki/Sangelaid", "y": 58.1989, "x": 23.9117 }, "geometry": { "type": "Point", "coordinates": [ 23.9117, 58.1989 ] } },
{ "type": "Feature", "properties": { "title": "Öörahu", "url": "https://en.wikipedia.org/wiki/%C3%96%C3%B6rahu", "y": 58.78222, "x": 23.44889 }, "geometry": { "type": "Point", "coordinates": [ 23.44889, 58.78222 ] } },
{ "type": "Feature", "properties": { "title": "Põiksäär", "url": "https://en.wikipedia.org/wiki/P%C3%B5iks%C3%A4%C3%A4r", "y": 58.4417, "x": 23.2803 }, "geometry": { "type": "Point", "coordinates": [ 23.2803, 58.4417 ] } },
{ "type": "Feature", "properties": { "title": "Ankrurahu", "url": "https://en.wikipedia.org/wiki/Ankrurahu", "y": 58.7426, "x": 23.1211 }, "geometry": { "type": "Point", "coordinates": [ 23.1211, 58.7426 ] } },
{ "type": "Feature", "properties": { "title": "Innarahu", "url": "https://en.wikipedia.org/wiki/Innarahu", "y": 58.27972, "x": 21.82444 }, "geometry": { "type": "Point", "coordinates": [ 21.82444, 58.27972 ] } },
{ "type": "Feature", "properties": { "title": "Laidu", "url": "https://en.wikipedia.org/wiki/Laidu", "y": 58.5211, "x": 22.2794 }, "geometry": { "type": "Point", "coordinates": [ 22.2794, 58.5211 ] } },
{ "type": "Feature", "properties": { "title": "Kihnu", "url": "https://en.wikipedia.org/wiki/Kihnu", "y": 58.13, "x": 23.99 }, "geometry": { "type": "Point", "coordinates": [ 23.99, 58.13 ] } },
{ "type": "Feature", "properties": { "title": "United States", "url": "https://en.wikipedia.org/wiki/United_States", "y": 40.717, "x": -74.0 }, "geometry": { "type": "Point", "coordinates": [ -74.0, 40.717 ] } },
{ "type": "Feature", "properties": { "title": "Indiana University", "url": "https://en.wikipedia.org/wiki/Indiana_University", "y": 39.167, "x": -86.5 }, "geometry": { "type": "Point", "coordinates": [ -86.5, 39.167 ] } },
{ "type": "Feature", "properties": { "title": "University of California", "url": "https://en.wikipedia.org/wiki/University_of_California", "y": 37.802168, "x": -122.271281 }, "geometry": { "type": "Point", "coordinates": [ -122.271281, 37.802168 ] } },
{ "type": "Feature", "properties": { "title": "Mumbai", "url": "https://en.wikipedia.org/wiki/Bombay,_Maharashtra", "y": 19.0759899, "x": 72.8773928 }, "geometry": { "type": "Point", "coordinates": [ 72.8773928, 19.0759899 ] } },
{ "type": "Feature", "properties": { "title": "Navi Mumbai", "url": "https://en.wikipedia.org/wiki/Navi_Mumbai", "y": 19.02, "x": 73.02 }, "geometry": { "type": "Point", "coordinates": [ 73.02, 19.02 ] } },
{ "type": "Feature", "properties": { "title": "Vashi", "url": "https://en.wikipedia.org/wiki/Vashi", "y": 19.08, "x": 73.01 }, "geometry": { "type": "Point", "coordinates": [ 73.01, 19.08 ] } },
{ "type": "Feature", "properties": { "title": "Bhayandar", "url": "https://en.wikipedia.org/wiki/Bhayandar", "y": 19.29, "x": 72.85 }, "geometry": { "type": "Point", "coordinates": [ 72.85, 19.29 ] } },
{ "type": "Feature", "properties": { "title": "Kausa", "url": "https://en.wikipedia.org/wiki/Kausa", "y": 19.1675056, "x": 73.0250083 }, "geometry": { "type": "Point", "coordinates": [ 73.0250083, 19.1675056 ] } },
{ "type": "Feature", "properties": { "title": "Kurla", "url": "https://en.wikipedia.org/wiki/Kurla", "y": 19.06, "x": 72.89 }, "geometry": { "type": "Point", "coordinates": [ 72.89, 19.06 ] } },
{ "type": "Feature", "properties": { "title": "Kurla railway station", "url": "https://en.wikipedia.org/wiki/Kurla_railway_station", "y": 19.0656, "x": 72.8791 }, "geometry": { "type": "Point", "coordinates": [ 72.8791, 19.0656 ] } },
{ "type": "Feature", "properties": { "title": "Thane railway station", "url": "https://en.wikipedia.org/wiki/Thane_railway_station", "y": 19.18611, "x": 72.97583 }, "geometry": { "type": "Point", "coordinates": [ 72.97583, 19.18611 ] } },
{ "type": "Feature", "properties": { "title": "Byculla railway station", "url": "https://en.wikipedia.org/wiki/Byculla_railway_station", "y": 18.97639, "x": 72.83278 }, "geometry": { "type": "Point", "coordinates": [ 72.83278, 18.97639 ] } },
{ "type": "Feature", "properties": { "title": "Zawiercie", "url": "https://en.wikipedia.org/wiki/Zawiercie", "y": 50.5, "x": 19.417 }, "geometry": { "type": "Point", "coordinates": [ 19.417, 50.5 ] } },
{ "type": "Feature", "properties": { "title": "Gmina Łazy", "url": "https://en.wikipedia.org/wiki/Gmina_%C5%81azy", "y": 50.433, "x": 19.4 }, "geometry": { "type": "Point", "coordinates": [ 19.4, 50.433 ] } },
{ "type": "Feature", "properties": { "title": "Gmina Żarnowiec", "url": "https://en.wikipedia.org/wiki/Gmina_%C5%BBarnowiec", "y": 50.48444, "x": 19.86306 }, "geometry": { "type": "Point", "coordinates": [ 19.86306, 50.48444 ] } },
{ "type": "Feature", "properties": { "title": "Jeziorowice", "url": "https://en.wikipedia.org/wiki/Jeziorowice,_Gmina_%C5%BBarnowiec", "y": 50.533, "x": 19.783 }, "geometry": { "type": "Point", "coordinates": [ 19.783, 50.533 ] } },
{ "type": "Feature", "properties": { "title": "Zawiercie County", "url": "https://en.wikipedia.org/wiki/Zawiercie_County", "y": 50.5, "x": 19.417 }, "geometry": { "type": "Point", "coordinates": [ 19.417, 50.5 ] } },
{ "type": "Feature", "properties": { "title": "Silesian Voivodeship", "url": "https://en.wikipedia.org/wiki/Silesian_Voivodeship", "y": 50.33333, "x": 19.00028 }, "geometry": { "type": "Point", "coordinates": [ 19.00028, 50.33333 ] } },
{ "type": "Feature", "properties": { "title": "Czeladź", "url": "https://en.wikipedia.org/wiki/Czelad%C5%BA", "y": 50.333, "x": 19.083 }, "geometry": { "type": "Point", "coordinates": [ 19.083, 50.333 ] } },
{ "type": "Feature", "properties": { "title": "Shchyrets", "url": "https://en.wikipedia.org/wiki/Shchyrets", "y": 49.65278, "x": 23.85611 }, "geometry": { "type": "Point", "coordinates": [ 23.85611, 49.65278 ] } },
{ "type": "Feature", "properties": { "title": "Zhydachiv", "url": "https://en.wikipedia.org/wiki/Zhydachiv", "y": 49.385, "x": 24.14444 }, "geometry": { "type": "Point", "coordinates": [ 24.14444, 49.385 ] } },
{ "type": "Feature", "properties": { "title": "Klettgau", "url": "https://en.wikipedia.org/wiki/Klettgau", "y": 47.65833, "x": 8.42278 }, "geometry": { "type": "Point", "coordinates": [ 8.42278, 47.65833 ] } },
{ "type": "Feature", "properties": { "title": "Stühlingen", "url": "https://en.wikipedia.org/wiki/St%C3%BChlingen", "y": 47.74528, "x": 8.44583 }, "geometry": { "type": "Point", "coordinates": [ 8.44583, 47.74528 ] } },
{ "type": "Feature", "properties": { "title": "Switzerland", "url": "https://en.wikipedia.org/wiki/Switzerland", "y": 46.833, "x": 8.333 }, "geometry": { "type": "Point", "coordinates": [ 8.333, 46.833 ] } },
{ "type": "Feature", "properties": { "title": "Trinidad and Tobago", "url": "https://en.wikipedia.org/wiki/Trinidad_and_Tobago", "y": 10.6, "x": -61.1 }, "geometry": { "type": "Point", "coordinates": [ -61.1, 10.6 ] } },
{ "type": "Feature", "properties": { "title": "Haarlem", "url": "https://en.wikipedia.org/wiki/Haarlem", "y": 52.383, "x": 4.633 }, "geometry": { "type": "Point", "coordinates": [ 4.633, 52.383 ] } },
{ "type": "Feature", "properties": { "title": "Brong-Ahafo region", "url": "https://en.wikipedia.org/wiki/Brong-Ahafo_region", "y": 7.75, "x": -1.5 }, "geometry": { "type": "Point", "coordinates": [ -1.5, 7.75 ] } },
{ "type": "Feature", "properties": { "title": "Nkoranza North District", "url": "https://en.wikipedia.org/wiki/Nkoranza_North_District", "y": 7.683, "x": -1.667 }, "geometry": { "type": "Point", "coordinates": [ -1.667, 7.683 ] } },
{ "type": "Feature", "properties": { "title": "Bono East Region", "url": "https://en.wikipedia.org/wiki/Bono_East_Region", "y": 7.75, "x": -1.05 }, "geometry": { "type": "Point", "coordinates": [ -1.05, 7.75 ] } },
{ "type": "Feature", "properties": { "title": "Ireland", "url": "https://en.wikipedia.org/wiki/Ireland", "y": 53.417, "x": -8.0 }, "geometry": { "type": "Point", "coordinates": [ -8.0, 53.417 ] } },
{ "type": "Feature", "properties": { "title": "Munster", "url": "https://en.wikipedia.org/wiki/Munster", "y": 52.25, "x": -9.0 }, "geometry": { "type": "Point", "coordinates": [ -9.0, 52.25 ] } },
{ "type": "Feature", "properties": { "title": "IIT Kharagpur", "url": "https://en.wikipedia.org/wiki/IIT_Kharagpur", "y": 22.3197139, "x": 87.3099639 }, "geometry": { "type": "Point", "coordinates": [ 87.3099639, 22.3197139 ] } },
{ "type": "Feature", "properties": { "title": "S. N. Bose National Centre for Basic Sciences", "url": "https://en.wikipedia.org/wiki/S.N._Bose_National_Centre_for_Basic_Sciences", "y": 22.5691766, "x": 88.4155246 }, "geometry": { "type": "Point", "coordinates": [ 88.4155246, 22.5691766 ] } },
{ "type": "Feature", "properties": { "title": "Maulana Abul Kalam Azad University of Technology", "url": "https://en.wikipedia.org/wiki/West_Bengal_University_of_Technology", "y": 22.957038, "x": 88.544293 }, "geometry": { "type": "Point", "coordinates": [ 88.544293, 22.957038 ] } },
{ "type": "Feature", "properties": { "title": "University of Calcutta", "url": "https://en.wikipedia.org/wiki/University_of_Calcutta", "y": 22.57639, "x": 88.36194 }, "geometry": { "type": "Point", "coordinates": [ 88.36194, 22.57639 ] } },
{ "type": "Feature", "properties": { "title": "Ivory Coast", "url": "https://en.wikipedia.org/wiki/Ivory_Coast", "y": 6.85, "x": -5.3 }, "geometry": { "type": "Point", "coordinates": [ -5.3, 6.85 ] } },
{ "type": "Feature", "properties": { "title": "Region of Murcia", "url": "https://en.wikipedia.org/wiki/Region_of_Murcia", "y": 38.0, "x": -1.833 }, "geometry": { "type": "Point", "coordinates": [ -1.833, 38.0 ] } },
{ "type": "Feature", "properties": { "title": "Province of Toledo", "url": "https://en.wikipedia.org/wiki/Province_of_Toledo", "y": 39.833, "x": -4.0 }, "geometry": { "type": "Point", "coordinates": [ -4.0, 39.833 ] } },
{ "type": "Feature", "properties": { "title": "Tibet", "url": "https://en.wikipedia.org/wiki/Tibet", "y": 31.0, "x": 89.0 }, "geometry": { "type": "Point", "coordinates": [ 89.0, 31.0 ] } },
{ "type": "Feature", "properties": { "title": "Drepung Monastery", "url": "https://en.wikipedia.org/wiki/Drepung", "y": 29.67639, "x": 91.0475 }, "geometry": { "type": "Point", "coordinates": [ 91.0475, 29.67639 ] } },
{ "type": "Feature", "properties": { "title": "Ganden Monastery", "url": "https://en.wikipedia.org/wiki/Ganden_Monastery", "y": 29.758, "x": 91.475 }, "geometry": { "type": "Point", "coordinates": [ 91.475, 29.758 ] } },
{ "type": "Feature", "properties": { "title": "Purbuchok Hermitage", "url": "https://en.wikipedia.org/wiki/Purbuchok_Hermitage", "y": 29.71028, "x": 91.14972 }, "geometry": { "type": "Point", "coordinates": [ 91.14972, 29.71028 ] } },
{ "type": "Feature", "properties": { "title": "Shigatse", "url": "https://en.wikipedia.org/wiki/Shigatse", "y": 29.267, "x": 88.881 }, "geometry": { "type": "Point", "coordinates": [ 88.881, 29.267 ] } },
{ "type": "Feature", "properties": { "title": "Xiayadong Township", "url": "https://en.wikipedia.org/wiki/Xiayadong_Township", "y": 27.42944, "x": 88.9275 }, "geometry": { "type": "Point", "coordinates": [ 88.9275, 27.42944 ] } },
{ "type": "Feature", "properties": { "title": "Doklam", "url": "https://en.wikipedia.org/wiki/Doklam", "y": 27.3382507, "x": 88.9364553 }, "geometry": { "type": "Point", "coordinates": [ 88.9364553, 27.3382507 ] } },
{ "type": "Feature", "properties": { "title": "Shimshal", "url": "https://en.wikipedia.org/wiki/Shimshal", "y": 36.43333, "x": 75.6875 }, "geometry": { "type": "Point", "coordinates": [ 75.6875, 36.43333 ] } },
{ "type": "Feature", "properties": { "title": "Treblinka extermination camp", "url": "https://en.wikipedia.org/wiki/Treblinka_extermination_camp", "y": 52.6310694, "x": 22.0530583 }, "geometry": { "type": "Point", "coordinates": [ 22.0530583, 52.6310694 ] } },
{ "type": "Feature", "properties": { "title": "Mongolia", "url": "https://en.wikipedia.org/wiki/Mongolia", "y": 48.0, "x": 106.0 }, "geometry": { "type": "Point", "coordinates": [ 106.0, 48.0 ] } },
{ "type": "Feature", "properties": { "title": "Quadrilatero", "url": "https://en.wikipedia.org/wiki/Quadrilatero", "y": 45.29417, "x": 10.96833 }, "geometry": { "type": "Point", "coordinates": [ 10.96833, 45.29417 ] } },
{ "type": "Feature", "properties": { "title": "Papal States", "url": "https://en.wikipedia.org/wiki/Papal_States", "y": 42.82111, "x": 12.60278 }, "geometry": { "type": "Point", "coordinates": [ 12.60278, 42.82111 ] } },
{ "type": "Feature", "properties": { "title": "Maronite Church", "url": "https://en.wikipedia.org/wiki/Maronite_Church", "y": 33.9678, "x": 35.6339 }, "geometry": { "type": "Point", "coordinates": [ 35.6339, 33.9678 ] } },
{ "type": "Feature", "properties": { "title": "Kumaon division", "url": "https://en.wikipedia.org/wiki/Kumaon_division", "y": 29.6, "x": 79.7 }, "geometry": { "type": "Point", "coordinates": [ 79.7, 29.6 ] } },
{ "type": "Feature", "properties": { "title": "Arena das Dunas", "url": "https://en.wikipedia.org/wiki/Arena_das_Dunas", "y": -5.826936, "x": -35.212371 }, "geometry": { "type": "Point", "coordinates": [ -35.212371, -5.826936 ] } },
{ "type": "Feature", "properties": { "title": "Estádio Augusto Bauer", "url": "https://en.wikipedia.org/wiki/Est%C3%A1dio_Augusto_Bauer", "y": -27.1014, "x": -48.9161 }, "geometry": { "type": "Point", "coordinates": [ -48.9161, -27.1014 ] } },
{ "type": "Feature", "properties": { "title": "Almeidão (Minas Gerais)", "url": "https://en.wikipedia.org/wiki/Est%C3%A1dio_Ant%C3%B4nio_Guimar%C3%A3es_de_Almeida", "y": -20.9075, "x": -42.03028 }, "geometry": { "type": "Point", "coordinates": [ -42.03028, -20.9075 ] } },
{ "type": "Feature", "properties": { "title": "Tombos", "url": "https://en.wikipedia.org/wiki/Tombos", "y": -21.133, "x": -42.367 }, "geometry": { "type": "Point", "coordinates": [ -42.367, -21.133 ] } },
{ "type": "Feature", "properties": { "title": "Ouro Fino", "url": "https://en.wikipedia.org/wiki/Ouro_Fino", "y": -22.28278, "x": -46.36889 }, "geometry": { "type": "Point", "coordinates": [ -46.36889, -22.28278 ] } },
{ "type": "Feature", "properties": { "title": "Ibiracatu", "url": "https://en.wikipedia.org/wiki/Ibiracatu", "y": -15.66389, "x": -44.16389 }, "geometry": { "type": "Point", "coordinates": [ -44.16389, -15.66389 ] } },
{ "type": "Feature", "properties": { "title": "São Caetano do Sul", "url": "https://en.wikipedia.org/wiki/S%C3%A3o_Caetano_do_Sul", "y": -23.7, "x": -46.55 }, "geometry": { "type": "Point", "coordinates": [ -46.55, -23.7 ] } },
{ "type": "Feature", "properties": { "title": "Staatsoper Hannover", "url": "https://en.wikipedia.org/wiki/Staatsoper_Hannover", "y": 52.37333, "x": 9.74083 }, "geometry": { "type": "Point", "coordinates": [ 9.74083, 52.37333 ] } },
{ "type": "Feature", "properties": { "title": "Grenoble", "url": "https://en.wikipedia.org/wiki/Grenoble", "y": 45.171546, "x": 5.722387 }, "geometry": { "type": "Point", "coordinates": [ 5.722387, 45.171546 ] } },
{ "type": "Feature", "properties": { "title": "Spain", "url": "https://en.wikipedia.org/wiki/Spain", "y": 40.433, "x": -3.7 }, "geometry": { "type": "Point", "coordinates": [ -3.7, 40.433 ] } },
{ "type": "Feature", "properties": { "title": "HMS Prince of Wales (53)", "url": "https://en.wikipedia.org/wiki/HMS_Prince_of_Wales_(53)", "y": 3.56, "x": 104.47833 }, "geometry": { "type": "Point", "coordinates": [ 104.47833, 3.56 ] } },
{ "type": "Feature", "properties": { "title": "Moneglia", "url": "https://en.wikipedia.org/wiki/Moneglia", "y": 44.233, "x": 9.483 }, "geometry": { "type": "Point", "coordinates": [ 9.483, 44.233 ] } },
{ "type": "Feature", "properties": { "title": "Arenzano", "url": "https://en.wikipedia.org/wiki/Arenzano", "y": 44.40417, "x": 8.68056 }, "geometry": { "type": "Point", "coordinates": [ 8.68056, 44.40417 ] } },
{ "type": "Feature", "properties": { "title": "Louisville, Kentucky", "url": "https://en.wikipedia.org/wiki/Louisville,_Kentucky", "y": 38.115, "x": -85.645 }, "geometry": { "type": "Point", "coordinates": [ -85.645, 38.115 ] } },
{ "type": "Feature", "properties": { "title": "Lincoln County, Kentucky", "url": "https://en.wikipedia.org/wiki/Lincoln_County,_Kentucky", "y": 37.46, "x": -84.66 }, "geometry": { "type": "Point", "coordinates": [ -84.66, 37.46 ] } },
{ "type": "Feature", "properties": { "title": "Russell County, Kentucky", "url": "https://en.wikipedia.org/wiki/Russell_County,_Kentucky", "y": 36.99, "x": -85.06 }, "geometry": { "type": "Point", "coordinates": [ -85.06, 36.99 ] } },
{ "type": "Feature", "properties": { "title": "Elizabethtown, Kentucky", "url": "https://en.wikipedia.org/wiki/Elizabethtown,_Kentucky", "y": 37.7, "x": -85.867 }, "geometry": { "type": "Point", "coordinates": [ -85.867, 37.7 ] } },
{ "type": "Feature", "properties": { "title": "Cape Canaveral Space Launch Complex 37", "url": "https://en.wikipedia.org/wiki/Cape_Canaveral_Space_Launch_Complex_37", "y": 28.531986, "x": -80.566821 }, "geometry": { "type": "Point", "coordinates": [ -80.566821, 28.531986 ] } },
{ "type": "Feature", "properties": { "title": "Cape Canaveral Launch Complex 34", "url": "https://en.wikipedia.org/wiki/Cape_Canaveral_Launch_Complex_34", "y": 28.52194, "x": -80.56139 }, "geometry": { "type": "Point", "coordinates": [ -80.56139, 28.52194 ] } },
{ "type": "Feature", "properties": { "title": "Cape Canaveral Space Launch Complex 37", "url": "https://en.wikipedia.org/wiki/LC-37", "y": 28.531986, "x": -80.566821 }, "geometry": { "type": "Point", "coordinates": [ -80.566821, 28.531986 ] } },
{ "type": "Feature", "properties": { "title": "Madrid", "url": "https://en.wikipedia.org/wiki/Madrid", "y": 40.417, "x": -3.717 }, "geometry": { "type": "Point", "coordinates": [ -3.717, 40.417 ] } },
{ "type": "Feature", "properties": { "title": "San Donato di Ninea", "url": "https://en.wikipedia.org/wiki/San_Donato_di_Ninea", "y": 39.7, "x": 16.05 }, "geometry": { "type": "Point", "coordinates": [ 16.05, 39.7 ] } },
{ "type": "Feature", "properties": { "title": "San Martino di Finita", "url": "https://en.wikipedia.org/wiki/San_Martino_di_Finita", "y": 39.483, "x": 16.1 }, "geometry": { "type": "Point", "coordinates": [ 16.1, 39.483 ] } },
{ "type": "Feature", "properties": { "title": "San Sosti", "url": "https://en.wikipedia.org/wiki/San_Sosti", "y": 39.66, "x": 16.02833 }, "geometry": { "type": "Point", "coordinates": [ 16.02833, 39.66 ] } },
{ "type": "Feature", "properties": { "title": "Malito", "url": "https://en.wikipedia.org/wiki/Malito", "y": 39.15, "x": 16.25 }, "geometry": { "type": "Point", "coordinates": [ 16.25, 39.15 ] } },
{ "type": "Feature", "properties": { "title": "University of Delaware", "url": "https://en.wikipedia.org/wiki/University_of_Delaware", "y": 39.67833, "x": -75.75111 }, "geometry": { "type": "Point", "coordinates": [ -75.75111, 39.67833 ] } },
{ "type": "Feature", "properties": { "title": "Conesville, Iowa", "url": "https://en.wikipedia.org/wiki/Conesville,_Iowa", "y": 41.37944, "x": -91.35028 }, "geometry": { "type": "Point", "coordinates": [ -91.35028, 41.37944 ] } },
{ "type": "Feature", "properties": { "title": "Conesville, Ohio", "url": "https://en.wikipedia.org/wiki/Conesville,_Ohio", "y": 40.18389, "x": -81.89194 }, "geometry": { "type": "Point", "coordinates": [ -81.89194, 40.18389 ] } },
{ "type": "Feature", "properties": { "title": "Ford Motor Company", "url": "https://en.wikipedia.org/wiki/Ford_Motor_Company", "y": 42.31472, "x": -83.21056 }, "geometry": { "type": "Point", "coordinates": [ -83.21056, 42.31472 ] } },
{ "type": "Feature", "properties": { "title": "United States Military Academy", "url": "https://en.wikipedia.org/wiki/United_States_Military_Academy", "y": 41.393, "x": -73.958 }, "geometry": { "type": "Point", "coordinates": [ -73.958, 41.393 ] } },
{ "type": "Feature", "properties": { "title": "Armed boarding steamer", "url": "https://en.wikipedia.org/wiki/Armed_boarding_steamer", "y": 57.067, "x": -0.55 }, "geometry": { "type": "Point", "coordinates": [ -0.55, 57.067 ] } },
{ "type": "Feature", "properties": { "title": "Wharton School of the University of Pennsylvania", "url": "https://en.wikipedia.org/wiki/Wharton_School_of_the_University_of_Pennsylvania", "y": 39.953232, "x": -75.197993 }, "geometry": { "type": "Point", "coordinates": [ -75.197993, 39.953232 ] } },
{ "type": "Feature", "properties": { "title": "Comcast", "url": "https://en.wikipedia.org/wiki/Comcast_Corporation", "y": 39.9545, "x": -75.1685 }, "geometry": { "type": "Point", "coordinates": [ -75.1685, 39.9545 ] } },
{ "type": "Feature", "properties": { "title": "Hong Kong", "url": "https://en.wikipedia.org/wiki/Hong_Kong", "y": 22.3, "x": 114.2 }, "geometry": { "type": "Point", "coordinates": [ 114.2, 22.3 ] } },
{ "type": "Feature", "properties": { "title": "Canada", "url": "https://en.wikipedia.org/wiki/Canada", "y": 45.4, "x": -75.667 }, "geometry": { "type": "Point", "coordinates": [ -75.667, 45.4 ] } },
{ "type": "Feature", "properties": { "title": "Kingston (electoral district)", "url": "https://en.wikipedia.org/wiki/Kingston_(electoral_district)", "y": 44.242, "x": -76.496 }, "geometry": { "type": "Point", "coordinates": [ -76.496, 44.242 ] } },
{ "type": "Feature", "properties": { "title": "Climatic Research Unit", "url": "https://en.wikipedia.org/wiki/Climatic_Research_Unit", "y": 52.6218, "x": 1.2385 }, "geometry": { "type": "Point", "coordinates": [ 1.2385, 52.6218 ] } },
{ "type": "Feature", "properties": { "title": "Bush House", "url": "https://en.wikipedia.org/wiki/Bush_House", "y": 51.51275, "x": -0.117278 }, "geometry": { "type": "Point", "coordinates": [ -0.117278, 51.51275 ] } },
{ "type": "Feature", "properties": { "title": "BBC Cymru Wales New Broadcasting House", "url": "https://en.wikipedia.org/wiki/BBC_Cymru_Wales_New_Broadcasting_House", "y": 51.476268, "x": -3.179891 }, "geometry": { "type": "Point", "coordinates": [ -3.179891, 51.476268 ] } },
{ "type": "Feature", "properties": { "title": "Casterton, Victoria", "url": "https://en.wikipedia.org/wiki/Casterton,_Victoria", "y": -37.58333, "x": 141.4 }, "geometry": { "type": "Point", "coordinates": [ 141.4, -37.58333 ] } },
{ "type": "Feature", "properties": { "title": "Electoral district of Lowan", "url": "https://en.wikipedia.org/wiki/Electoral_district_of_Lowan", "y": -37.0, "x": 142.0 }, "geometry": { "type": "Point", "coordinates": [ 142.0, -37.0 ] } },
{ "type": "Feature", "properties": { "title": "Electoral district of Ringwood (Victoria)", "url": "https://en.wikipedia.org/wiki/Electoral_district_of_Ringwood_(Victoria)", "y": -37.811, "x": 145.231 }, "geometry": { "type": "Point", "coordinates": [ 145.231, -37.811 ] } },
{ "type": "Feature", "properties": { "title": "Windsor, Queensland", "url": "https://en.wikipedia.org/wiki/Windsor,_Queensland", "y": -27.4268, "x": 153.0293 }, "geometry": { "type": "Point", "coordinates": [ 153.0293, -27.4268 ] } },
{ "type": "Feature", "properties": { "title": "Deagon, Queensland", "url": "https://en.wikipedia.org/wiki/Deagon,_Queensland", "y": -27.3255, "x": 153.0589 }, "geometry": { "type": "Point", "coordinates": [ 153.0589, -27.3255 ] } },
{ "type": "Feature", "properties": { "title": "Raymont Residential College", "url": "https://en.wikipedia.org/wiki/Raymont_Residential_College", "y": -27.4778, "x": 152.9931 }, "geometry": { "type": "Point", "coordinates": [ 152.9931, -27.4778 ] } },
{ "type": "Feature", "properties": { "title": "George Orwell", "url": "https://en.wikipedia.org/wiki/George_Orwell", "y": 56.11083, "x": -5.69167 }, "geometry": { "type": "Point", "coordinates": [ -5.69167, 56.11083 ] } },
{ "type": "Feature", "properties": { "title": "Mytilene", "url": "https://en.wikipedia.org/wiki/Mytilene", "y": 39.1, "x": 26.55 }, "geometry": { "type": "Point", "coordinates": [ 26.55, 39.1 ] } },
{ "type": "Feature", "properties": { "title": "Sack of Constantinople", "url": "https://en.wikipedia.org/wiki/Sack_of_Constantinople", "y": 41.0167, "x": 28.9769 }, "geometry": { "type": "Point", "coordinates": [ 28.9769, 41.0167 ] } },
{ "type": "Feature", "properties": { "title": "Vancouver", "url": "https://en.wikipedia.org/wiki/Vancouver", "y": 49.26111, "x": -123.11389 }, "geometry": { "type": "Point", "coordinates": [ -123.11389, 49.26111 ] } },
{ "type": "Feature", "properties": { "title": "British Columbia Institute of Technology", "url": "https://en.wikipedia.org/wiki/British_Columbia_Institute_of_Technology", "y": 49.25, "x": -123.0 }, "geometry": { "type": "Point", "coordinates": [ -123.0, 49.25 ] } },
{ "type": "Feature", "properties": { "title": "Hawaii", "url": "https://en.wikipedia.org/wiki/Hawaii", "y": 20.55, "x": -156.6 }, "geometry": { "type": "Point", "coordinates": [ -156.6, 20.55 ] } },
{ "type": "Feature", "properties": { "title": "University of Illinois Springfield", "url": "https://en.wikipedia.org/wiki/University_of_Illinois_Springfield", "y": 39.729021, "x": -89.617656 }, "geometry": { "type": "Point", "coordinates": [ -89.617656, 39.729021 ] } },
{ "type": "Feature", "properties": { "title": "University of Illinois Urbana-Champaign", "url": "https://en.wikipedia.org/wiki/University_of_Illinois_Urbana-Champaign", "y": 40.11056, "x": -88.22833 }, "geometry": { "type": "Point", "coordinates": [ -88.22833, 40.11056 ] } },
{ "type": "Feature", "properties": { "title": "Pittsburgh", "url": "https://en.wikipedia.org/wiki/Pittsburgh", "y": 40.43972, "x": -79.97639 }, "geometry": { "type": "Point", "coordinates": [ -79.97639, 40.43972 ] } },
{ "type": "Feature", "properties": { "title": "Jagdschloss Grunewald", "url": "https://en.wikipedia.org/wiki/Jagdschloss_Grunewald", "y": 52.46722, "x": 13.26139 }, "geometry": { "type": "Point", "coordinates": [ 13.26139, 52.46722 ] } },
{ "type": "Feature", "properties": { "title": "Ouro Preto", "url": "https://en.wikipedia.org/wiki/Ouro_Preto", "y": -20.38528, "x": -43.50361 }, "geometry": { "type": "Point", "coordinates": [ -43.50361, -20.38528 ] } },
{ "type": "Feature", "properties": { "title": "Zabargad Island", "url": "https://en.wikipedia.org/wiki/St._John%27s_Island,_Egypt", "y": 23.60972, "x": 36.19583 }, "geometry": { "type": "Point", "coordinates": [ 36.19583, 23.60972 ] } },
{ "type": "Feature", "properties": { "title": "Gabal Elba", "url": "https://en.wikipedia.org/wiki/Elba_National_Park", "y": 22.9, "x": 35.34 }, "geometry": { "type": "Point", "coordinates": [ 35.34, 22.9 ] } },
{ "type": "Feature", "properties": { "title": "Siwa Oasis", "url": "https://en.wikipedia.org/wiki/Siwa_Oasis", "y": 29.20528, "x": 25.51944 }, "geometry": { "type": "Point", "coordinates": [ 25.51944, 29.20528 ] } },
{ "type": "Feature", "properties": { "title": "Swiss National Library", "url": "https://en.wikipedia.org/wiki/Swiss_National_Library", "y": 46.9414066, "x": 7.4497034 }, "geometry": { "type": "Point", "coordinates": [ 7.4497034, 46.9414066 ] } },
{ "type": "Feature", "properties": { "title": "National Library of Azerbaijan", "url": "https://en.wikipedia.org/wiki/National_Library_of_Azerbaijan", "y": 40.37417, "x": 49.84583 }, "geometry": { "type": "Point", "coordinates": [ 49.84583, 40.37417 ] } },
{ "type": "Feature", "properties": { "title": "Azerbaijan University of Languages", "url": "https://en.wikipedia.org/wiki/Azerbaijan_University_of_Languages", "y": 40.395141, "x": 49.860335 }, "geometry": { "type": "Point", "coordinates": [ 49.860335, 40.395141 ] } },
{ "type": "Feature", "properties": { "title": "Ethiopia", "url": "https://en.wikipedia.org/wiki/Ethiopia", "y": 9.017, "x": 38.75 }, "geometry": { "type": "Point", "coordinates": [ 38.75, 9.017 ] } },
{ "type": "Feature", "properties": { "title": "Tur Abdin", "url": "https://en.wikipedia.org/wiki/Tur_Abdin", "y": 37.4, "x": 41.483 }, "geometry": { "type": "Point", "coordinates": [ 41.483, 37.4 ] } },
{ "type": "Feature", "properties": { "title": "Troyes", "url": "https://en.wikipedia.org/wiki/Troyes", "y": 48.2997, "x": 4.0792 }, "geometry": { "type": "Point", "coordinates": [ 4.0792, 48.2997 ] } },
{ "type": "Feature", "properties": { "title": "Saint-André-les-Vergers", "url": "https://en.wikipedia.org/wiki/Saint-Andr%C3%A9-les-Vergers", "y": 48.2806, "x": 4.0547 }, "geometry": { "type": "Point", "coordinates": [ 4.0547, 48.2806 ] } },
{ "type": "Feature", "properties": { "title": "Charmoy, Aube", "url": "https://en.wikipedia.org/wiki/Charmoy,_Aube", "y": 48.4039, "x": 3.5872 }, "geometry": { "type": "Point", "coordinates": [ 3.5872, 48.4039 ] } },
{ "type": "Feature", "properties": { "title": "Droupt-Sainte-Marie", "url": "https://en.wikipedia.org/wiki/Droupt-Sainte-Marie", "y": 48.4937, "x": 3.9232 }, "geometry": { "type": "Point", "coordinates": [ 3.9232, 48.4937 ] } },
{ "type": "Feature", "properties": { "title": "Pars-lès-Chavanges", "url": "https://en.wikipedia.org/wiki/Pars-l%C3%A8s-Chavanges", "y": 48.5078, "x": 4.4992 }, "geometry": { "type": "Point", "coordinates": [ 4.4992, 48.5078 ] } },
{ "type": "Feature", "properties": { "title": "Échemines", "url": "https://en.wikipedia.org/wiki/%C3%89chemines", "y": 48.3889, "x": 3.8336 }, "geometry": { "type": "Point", "coordinates": [ 3.8336, 48.3889 ] } },
{ "type": "Feature", "properties": { "title": "Coussegrey", "url": "https://en.wikipedia.org/wiki/Coussegrey", "y": 47.9556, "x": 4.0181 }, "geometry": { "type": "Point", "coordinates": [ 4.0181, 47.9556 ] } },
{ "type": "Feature", "properties": { "title": "Vaupoisson", "url": "https://en.wikipedia.org/wiki/Vaupoisson", "y": 48.5178, "x": 4.2361 }, "geometry": { "type": "Point", "coordinates": [ 4.2361, 48.5178 ] } },
{ "type": "Feature", "properties": { "title": "Bercenay-en-Othe", "url": "https://en.wikipedia.org/wiki/Bercenay-en-Othe", "y": 48.2092, "x": 3.8944 }, "geometry": { "type": "Point", "coordinates": [ 3.8944, 48.2092 ] } },
{ "type": "Feature", "properties": { "title": "Longsols", "url": "https://en.wikipedia.org/wiki/Longsols", "y": 48.4319, "x": 4.2872 }, "geometry": { "type": "Point", "coordinates": [ 4.2872, 48.4319 ] } },
{ "type": "Feature", "properties": { "title": "Villeloup", "url": "https://en.wikipedia.org/wiki/Villeloup", "y": 48.3617, "x": 3.8753 }, "geometry": { "type": "Point", "coordinates": [ 3.8753, 48.3617 ] } },
{ "type": "Feature", "properties": { "title": "Sainte-Savine", "url": "https://en.wikipedia.org/wiki/Sainte-Savine", "y": 48.2956, "x": 4.0497 }, "geometry": { "type": "Point", "coordinates": [ 4.0497, 48.2956 ] } },
{ "type": "Feature", "properties": { "title": "Petit-Mesnil", "url": "https://en.wikipedia.org/wiki/Petit-Mesnil", "y": 48.3494, "x": 4.5881 }, "geometry": { "type": "Point", "coordinates": [ 4.5881, 48.3494 ] } },
{ "type": "Feature", "properties": { "title": "Montiéramey", "url": "https://en.wikipedia.org/wiki/Monti%C3%A9ramey", "y": 48.2314, "x": 4.3067 }, "geometry": { "type": "Point", "coordinates": [ 4.3067, 48.2314 ] } },
{ "type": "Feature", "properties": { "title": "Avon-la-Pèze", "url": "https://en.wikipedia.org/wiki/Avon-la-P%C3%A8ze", "y": 48.3897, "x": 3.655 }, "geometry": { "type": "Point", "coordinates": [ 3.655, 48.3897 ] } },
{ "type": "Feature", "properties": { "title": "Salon, Aube", "url": "https://en.wikipedia.org/wiki/Salon,_Aube", "y": 48.6408, "x": 4.0044 }, "geometry": { "type": "Point", "coordinates": [ 4.0044, 48.6408 ] } },
{ "type": "Feature", "properties": { "title": "Ailleville", "url": "https://en.wikipedia.org/wiki/Ailleville", "y": 48.2533, "x": 4.6819 }, "geometry": { "type": "Point", "coordinates": [ 4.6819, 48.2533 ] } },
{ "type": "Feature", "properties": { "title": "Bagneux-la-Fosse", "url": "https://en.wikipedia.org/wiki/Bagneux-la-Fosse", "y": 47.9933, "x": 4.2986 }, "geometry": { "type": "Point", "coordinates": [ 4.2986, 47.9933 ] } },
{ "type": "Feature", "properties": { "title": "Villemoiron-en-Othe", "url": "https://en.wikipedia.org/wiki/Villemoiron-en-Othe", "y": 48.2008, "x": 3.7794 }, "geometry": { "type": "Point", "coordinates": [ 3.7794, 48.2008 ] } },
{ "type": "Feature", "properties": { "title": "La Chapelle-Saint-Luc", "url": "https://en.wikipedia.org/wiki/La_Chapelle-Saint-Luc", "y": 48.3125, "x": 4.0453 }, "geometry": { "type": "Point", "coordinates": [ 4.0453, 48.3125 ] } },
{ "type": "Feature", "properties": { "title": "Arrembécourt", "url": "https://en.wikipedia.org/wiki/Arremb%C3%A9court", "y": 48.5433, "x": 4.5981 }, "geometry": { "type": "Point", "coordinates": [ 4.5981, 48.5433 ] } },
{ "type": "Feature", "properties": { "title": "Ferreux-Quincey", "url": "https://en.wikipedia.org/wiki/Ferreux-Quincey", "y": 48.4514, "x": 3.6131 }, "geometry": { "type": "Point", "coordinates": [ 3.6131, 48.4514 ] } },
{ "type": "Feature", "properties": { "title": "Pars-lès-Romilly", "url": "https://en.wikipedia.org/wiki/Pars-l%C3%A8s-Romilly", "y": 48.4869, "x": 3.7325 }, "geometry": { "type": "Point", "coordinates": [ 3.7325, 48.4869 ] } },
{ "type": "Feature", "properties": { "title": "Dosnon", "url": "https://en.wikipedia.org/wiki/Dosnon", "y": 48.6114, "x": 4.2306 }, "geometry": { "type": "Point", "coordinates": [ 4.2306, 48.6114 ] } },
{ "type": "Feature", "properties": { "title": "Colombé-le-Sec", "url": "https://en.wikipedia.org/wiki/Colomb%C3%A9-le-Sec", "y": 48.2556, "x": 4.7975 }, "geometry": { "type": "Point", "coordinates": [ 4.7975, 48.2556 ] } },
{ "type": "Feature", "properties": { "title": "Rigny-la-Nonneuse", "url": "https://en.wikipedia.org/wiki/Rigny-la-Nonneuse", "y": 48.4114, "x": 3.6633 }, "geometry": { "type": "Point", "coordinates": [ 3.6633, 48.4114 ] } },
{ "type": "Feature", "properties": { "title": "Dienville", "url": "https://en.wikipedia.org/wiki/Dienville", "y": 48.3514, "x": 4.5344 }, "geometry": { "type": "Point", "coordinates": [ 4.5344, 48.3514 ] } },
{ "type": "Feature", "properties": { "title": "Mussy-sur-Seine", "url": "https://en.wikipedia.org/wiki/Mussy-sur-Seine", "y": 47.9778, "x": 4.4978 }, "geometry": { "type": "Point", "coordinates": [ 4.4978, 47.9778 ] } },
{ "type": "Feature", "properties": { "title": "Jessains", "url": "https://en.wikipedia.org/wiki/Jessains", "y": 48.2972, "x": 4.5783 }, "geometry": { "type": "Point", "coordinates": [ 4.5783, 48.2972 ] } },
{ "type": "Feature", "properties": { "title": "Landreville", "url": "https://en.wikipedia.org/wiki/Landreville", "y": 48.0728, "x": 4.4744 }, "geometry": { "type": "Point", "coordinates": [ 4.4744, 48.0728 ] } },
{ "type": "Feature", "properties": { "title": "Vitry-le-Croisé", "url": "https://en.wikipedia.org/wiki/Vitry-le-Crois%C3%A9", "y": 48.1458, "x": 4.5678 }, "geometry": { "type": "Point", "coordinates": [ 4.5678, 48.1458 ] } },
{ "type": "Feature", "properties": { "title": "Magnant, Aube", "url": "https://en.wikipedia.org/wiki/Magnant,_Aube", "y": 48.1711, "x": 4.4233 }, "geometry": { "type": "Point", "coordinates": [ 4.4233, 48.1711 ] } },
{ "type": "Feature", "properties": { "title": "Bercenay-le-Hayer", "url": "https://en.wikipedia.org/wiki/Bercenay-le-Hayer", "y": 48.3439, "x": 3.5956 }, "geometry": { "type": "Point", "coordinates": [ 3.5956, 48.3439 ] } },
{ "type": "Feature", "properties": { "title": "Longchamp-sur-Aujon", "url": "https://en.wikipedia.org/wiki/Longchamp-sur-Aujon", "y": 48.1508, "x": 4.8319 }, "geometry": { "type": "Point", "coordinates": [ 4.8319, 48.1508 ] } },
{ "type": "Feature", "properties": { "title": "Saint-Mesmin, Aube", "url": "https://en.wikipedia.org/wiki/Saint-Mesmin,_Aube", "y": 48.4447, "x": 3.9264 }, "geometry": { "type": "Point", "coordinates": [ 3.9264, 48.4447 ] } },
{ "type": "Feature", "properties": { "title": "Mergey", "url": "https://en.wikipedia.org/wiki/Mergey", "y": 48.3864, "x": 4.0053 }, "geometry": { "type": "Point", "coordinates": [ 4.0053, 48.3864 ] } },
{ "type": "Feature", "properties": { "title": "Éguilly-sous-Bois", "url": "https://en.wikipedia.org/wiki/%C3%89guilly-sous-Bois", "y": 48.1403, "x": 4.5372 }, "geometry": { "type": "Point", "coordinates": [ 4.5372, 48.1403 ] } },
{ "type": "Feature", "properties": { "title": "Soulaines-Dhuys", "url": "https://en.wikipedia.org/wiki/Soulaines-Dhuys", "y": 48.3747, "x": 4.7342 }, "geometry": { "type": "Point", "coordinates": [ 4.7342, 48.3747 ] } },
{ "type": "Feature", "properties": { "title": "Urville, Aube", "url": "https://en.wikipedia.org/wiki/Urville,_Aube", "y": 48.1714, "x": 4.6542 }, "geometry": { "type": "Point", "coordinates": [ 4.6542, 48.1714 ] } },
{ "type": "Feature", "properties": { "title": "Avant-lès-Ramerupt", "url": "https://en.wikipedia.org/wiki/Avant-l%C3%A8s-Ramerupt", "y": 48.4489, "x": 4.2875 }, "geometry": { "type": "Point", "coordinates": [ 4.2875, 48.4489 ] } },
{ "type": "Feature", "properties": { "title": "Bétignicourt", "url": "https://en.wikipedia.org/wiki/B%C3%A9tignicourt", "y": 48.4472, "x": 4.4564 }, "geometry": { "type": "Point", "coordinates": [ 4.4564, 48.4472 ] } },
{ "type": "Feature", "properties": { "title": "Longueville-sur-Aube", "url": "https://en.wikipedia.org/wiki/Longueville-sur-Aube", "y": 48.5556, "x": 3.9139 }, "geometry": { "type": "Point", "coordinates": [ 3.9139, 48.5556 ] } },
{ "type": "Feature", "properties": { "title": "Fays-la-Chapelle", "url": "https://en.wikipedia.org/wiki/Fays-la-Chapelle", "y": 48.1308, "x": 4.0206 }, "geometry": { "type": "Point", "coordinates": [ 4.0206, 48.1308 ] } },
{ "type": "Feature", "properties": { "title": "Pouan-les-Vallées", "url": "https://en.wikipedia.org/wiki/Pouan-les-Vall%C3%A9es", "y": 48.5422, "x": 4.0653 }, "geometry": { "type": "Point", "coordinates": [ 4.0653, 48.5422 ] } },
{ "type": "Feature", "properties": { "title": "Plancy-l'Abbaye", "url": "https://en.wikipedia.org/wiki/Plancy-l%27Abbaye", "y": 48.5708, "x": 3.9692 }, "geometry": { "type": "Point", "coordinates": [ 3.9692, 48.5708 ] } },
{ "type": "Feature", "properties": { "title": "Sommeval", "url": "https://en.wikipedia.org/wiki/Sommeval", "y": 48.1664, "x": 3.9661 }, "geometry": { "type": "Point", "coordinates": [ 3.9661, 48.1664 ] } },
{ "type": "Feature", "properties": { "title": "Viviers-sur-Artaut", "url": "https://en.wikipedia.org/wiki/Viviers-sur-Artaut", "y": 48.0961, "x": 4.4978 }, "geometry": { "type": "Point", "coordinates": [ 4.4978, 48.0961 ] } },
{ "type": "Feature", "properties": { "title": "Argançon", "url": "https://en.wikipedia.org/wiki/Argan%C3%A7on", "y": 48.2539, "x": 4.6044 }, "geometry": { "type": "Point", "coordinates": [ 4.6044, 48.2539 ] } },
{ "type": "Feature", "properties": { "title": "Dierrey-Saint-Julien", "url": "https://en.wikipedia.org/wiki/Dierrey-Saint-Julien", "y": 48.3128, "x": 3.8303 }, "geometry": { "type": "Point", "coordinates": [ 3.8303, 48.3128 ] } },
{ "type": "Feature", "properties": { "title": "Praslin, Aube", "url": "https://en.wikipedia.org/wiki/Praslin,_Aube", "y": 48.0472, "x": 4.2 }, "geometry": { "type": "Point", "coordinates": [ 4.2, 48.0472 ] } },
{ "type": "Feature", "properties": { "title": "Rouvres-les-Vignes", "url": "https://en.wikipedia.org/wiki/Rouvres-les-Vignes", "y": 48.2417, "x": 4.8236 }, "geometry": { "type": "Point", "coordinates": [ 4.8236, 48.2417 ] } },
{ "type": "Feature", "properties": { "title": "Fontenay-de-Bossery", "url": "https://en.wikipedia.org/wiki/Fontenay-de-Bossery", "y": 48.4542, "x": 3.4569 }, "geometry": { "type": "Point", "coordinates": [ 3.4569, 48.4542 ] } },
{ "type": "Feature", "properties": { "title": "Chappes, Aube", "url": "https://en.wikipedia.org/wiki/Chappes,_Aube", "y": 48.1669, "x": 4.2469 }, "geometry": { "type": "Point", "coordinates": [ 4.2469, 48.1669 ] } },
{ "type": "Feature", "properties": { "title": "Coursan-en-Othe", "url": "https://en.wikipedia.org/wiki/Coursan-en-Othe", "y": 48.0725, "x": 3.8397 }, "geometry": { "type": "Point", "coordinates": [ 3.8397, 48.0725 ] } },
{ "type": "Feature", "properties": { "title": "Turgy", "url": "https://en.wikipedia.org/wiki/Turgy", "y": 48.0247, "x": 4.0433 }, "geometry": { "type": "Point", "coordinates": [ 4.0433, 48.0247 ] } },
{ "type": "Feature", "properties": { "title": "Baroville", "url": "https://en.wikipedia.org/wiki/Baroville", "y": 48.1931, "x": 4.7219 }, "geometry": { "type": "Point", "coordinates": [ 4.7219, 48.1931 ] } },
{ "type": "Feature", "properties": { "title": "Chaserey", "url": "https://en.wikipedia.org/wiki/Chaserey", "y": 47.9589, "x": 4.0692 }, "geometry": { "type": "Point", "coordinates": [ 4.0692, 47.9589 ] } },
{ "type": "Feature", "properties": { "title": "Crancey", "url": "https://en.wikipedia.org/wiki/Crancey", "y": 48.5172, "x": 3.6394 }, "geometry": { "type": "Point", "coordinates": [ 3.6394, 48.5172 ] } },
{ "type": "Feature", "properties": { "title": "Crésantignes", "url": "https://en.wikipedia.org/wiki/Cr%C3%A9santignes", "y": 48.1417, "x": 4.02 }, "geometry": { "type": "Point", "coordinates": [ 4.02, 48.1417 ] } },
{ "type": "Feature", "properties": { "title": "Saint-Parres-aux-Tertres", "url": "https://en.wikipedia.org/wiki/Saint-Parres-aux-Tertres", "y": 48.3003, "x": 4.1186 }, "geometry": { "type": "Point", "coordinates": [ 4.1186, 48.3003 ] } },
{ "type": "Feature", "properties": { "title": "Fresnoy-le-Château", "url": "https://en.wikipedia.org/wiki/Fresnoy-le-Ch%C3%A2teau", "y": 48.2103, "x": 4.225 }, "geometry": { "type": "Point", "coordinates": [ 4.225, 48.2103 ] } },
{ "type": "Feature", "properties": { "title": "La Louptière-Thénard", "url": "https://en.wikipedia.org/wiki/La_Loupti%C3%A8re-Th%C3%A9nard", "y": 48.3892, "x": 3.4367 }, "geometry": { "type": "Point", "coordinates": [ 3.4367, 48.3892 ] } },
{ "type": "Feature", "properties": { "title": "Saint-Étienne-sous-Barbuise", "url": "https://en.wikipedia.org/wiki/Saint-%C3%89tienne-sous-Barbuise", "y": 48.5008, "x": 4.11 }, "geometry": { "type": "Point", "coordinates": [ 4.11, 48.5008 ] } },
{ "type": "Feature", "properties": { "title": "Prusy, Aube", "url": "https://en.wikipedia.org/wiki/Prusy,_Aube", "y": 47.9722, "x": 4.0456 }, "geometry": { "type": "Point", "coordinates": [ 4.0456, 47.9722 ] } },
{ "type": "Feature", "properties": { "title": "Marolles-lès-Bailly", "url": "https://en.wikipedia.org/wiki/Marolles-l%C3%A8s-Bailly", "y": 48.1856, "x": 4.3461 }, "geometry": { "type": "Point", "coordinates": [ 4.3461, 48.1856 ] } },
{ "type": "Feature", "properties": { "title": "Creney-près-Troyes", "url": "https://en.wikipedia.org/wiki/Creney-pr%C3%A8s-Troyes", "y": 48.3331, "x": 4.1275 }, "geometry": { "type": "Point", "coordinates": [ 4.1275, 48.3331 ] } },
{ "type": "Feature", "properties": { "title": "Denmark", "url": "https://en.wikipedia.org/wiki/Denmark", "y": 55.717, "x": 12.567 }, "geometry": { "type": "Point", "coordinates": [ 12.567, 55.717 ] } },
{ "type": "Feature", "properties": { "title": "Skagen", "url": "https://en.wikipedia.org/wiki/Skagen", "y": 57.717, "x": 10.583 }, "geometry": { "type": "Point", "coordinates": [ 10.583, 57.717 ] } },
{ "type": "Feature", "properties": { "title": "Port of Skagen", "url": "https://en.wikipedia.org/wiki/Port_of_Skagen", "y": 57.7167, "x": 10.5917 }, "geometry": { "type": "Point", "coordinates": [ 10.5917, 57.7167 ] } },
{ "type": "Feature", "properties": { "title": "Windsor Castle", "url": "https://en.wikipedia.org/wiki/Windsor_Castle", "y": 51.48333, "x": -0.60417 }, "geometry": { "type": "Point", "coordinates": [ -0.60417, 51.48333 ] } },
{ "type": "Feature", "properties": { "title": "Jersey", "url": "https://en.wikipedia.org/wiki/Jersey", "y": 49.19, "x": -2.11 }, "geometry": { "type": "Point", "coordinates": [ -2.11, 49.19 ] } },
{ "type": "Feature", "properties": { "title": "House of Commons of the United Kingdom", "url": "https://en.wikipedia.org/wiki/House_of_Commons_of_the_United_Kingdom", "y": 51.499889, "x": -0.124667 }, "geometry": { "type": "Point", "coordinates": [ -0.124667, 51.499889 ] } },
{ "type": "Feature", "properties": { "title": "USS Constitution", "url": "https://en.wikipedia.org/wiki/USS_Constitution", "y": 42.372472, "x": -71.056556 }, "geometry": { "type": "Point", "coordinates": [ -71.056556, 42.372472 ] } },
{ "type": "Feature", "properties": { "title": "Bideford", "url": "https://en.wikipedia.org/wiki/Bideford", "y": 51.016, "x": -4.209 }, "geometry": { "type": "Point", "coordinates": [ -4.209, 51.016 ] } },
{ "type": "Feature", "properties": { "title": "Farway", "url": "https://en.wikipedia.org/wiki/Farway", "y": 50.753708, "x": -3.160145 }, "geometry": { "type": "Point", "coordinates": [ -3.160145, 50.753708 ] } },
{ "type": "Feature", "properties": { "title": "Sidford", "url": "https://en.wikipedia.org/wiki/Sidford", "y": 50.70346, "x": -3.22774 }, "geometry": { "type": "Point", "coordinates": [ -3.22774, 50.70346 ] } },
{ "type": "Feature", "properties": { "title": "Shute, Devon", "url": "https://en.wikipedia.org/wiki/Shute,_Devon", "y": 50.7712, "x": -3.0602 }, "geometry": { "type": "Point", "coordinates": [ -3.0602, 50.7712 ] } },
{ "type": "Feature", "properties": { "title": "Coppergate Helmet", "url": "https://en.wikipedia.org/wiki/Coppergate_Helmet", "y": 53.960934, "x": -1.083183 }, "geometry": { "type": "Point", "coordinates": [ -1.083183, 53.960934 ] } },
{ "type": "Feature", "properties": { "title": "British Museum", "url": "https://en.wikipedia.org/wiki/British_Museum", "y": 51.5194889, "x": -0.1270194 }, "geometry": { "type": "Point", "coordinates": [ -0.1270194, 51.5194889 ] } },
{ "type": "Feature", "properties": { "title": "Covent Garden", "url": "https://en.wikipedia.org/wiki/Covent_Garden", "y": 51.512, "x": -0.123456 }, "geometry": { "type": "Point", "coordinates": [ -0.123456, 51.512 ] } },
{ "type": "Feature", "properties": { "title": "Paddington tube station (Bakerloo, Circle and District lines)", "url": "https://en.wikipedia.org/wiki/Paddington_tube_station_(Bakerloo,_Circle_and_District_lines)", "y": 51.51543, "x": -0.175409 }, "geometry": { "type": "Point", "coordinates": [ -0.175409, 51.51543 ] } },
{ "type": "Feature", "properties": { "title": "Paddington", "url": "https://en.wikipedia.org/wiki/Paddington", "y": 51.5172, "x": -0.173 }, "geometry": { "type": "Point", "coordinates": [ -0.173, 51.5172 ] } },
{ "type": "Feature", "properties": { "title": "Brockley", "url": "https://en.wikipedia.org/wiki/Brockley", "y": 51.4529, "x": -0.0345 }, "geometry": { "type": "Point", "coordinates": [ -0.0345, 51.4529 ] } },
{ "type": "Feature", "properties": { "title": "Hampstead", "url": "https://en.wikipedia.org/wiki/Hampstead", "y": 51.5541, "x": -0.1744 }, "geometry": { "type": "Point", "coordinates": [ -0.1744, 51.5541 ] } },
{ "type": "Feature", "properties": { "title": "Computer History Museum", "url": "https://en.wikipedia.org/wiki/Computer_History_Museum", "y": 37.414371, "x": -122.076817 }, "geometry": { "type": "Point", "coordinates": [ -122.076817, 37.414371 ] } },
{ "type": "Feature", "properties": { "title": "Basel", "url": "https://en.wikipedia.org/wiki/Basel", "y": 47.55472, "x": 7.59056 }, "geometry": { "type": "Point", "coordinates": [ 7.59056, 47.55472 ] } },
{ "type": "Feature", "properties": { "title": "Kyiv", "url": "https://en.wikipedia.org/wiki/Kyiv", "y": 50.45, "x": 30.52333 }, "geometry": { "type": "Point", "coordinates": [ 30.52333, 50.45 ] } },
{ "type": "Feature", "properties": { "title": "Ukrainian Soviet Socialist Republic", "url": "https://en.wikipedia.org/wiki/Ukrainian_SSR", "y": 50.45, "x": 30.5 }, "geometry": { "type": "Point", "coordinates": [ 30.5, 50.45 ] } },
{ "type": "Feature", "properties": { "title": "Soviet Union", "url": "https://en.wikipedia.org/wiki/USSR", "y": 55.75, "x": 37.617 }, "geometry": { "type": "Point", "coordinates": [ 37.617, 55.75 ] } },
{ "type": "Feature", "properties": { "title": "Cambridge University Press", "url": "https://en.wikipedia.org/wiki/Cambridge_University_Press", "y": 52.1882, "x": 0.132 }, "geometry": { "type": "Point", "coordinates": [ 0.132, 52.1882 ] } },
{ "type": "Feature", "properties": { "title": "Downing College, Cambridge", "url": "https://en.wikipedia.org/wiki/Downing_College,_Cambridge", "y": 52.2008, "x": 0.1248 }, "geometry": { "type": "Point", "coordinates": [ 0.1248, 52.2008 ] } },
{ "type": "Feature", "properties": { "title": "Corpus Christi College, Cambridge", "url": "https://en.wikipedia.org/wiki/Corpus_Christi_College,_Cambridge", "y": 52.2031, "x": 0.118 }, "geometry": { "type": "Point", "coordinates": [ 0.118, 52.2031 ] } },
{ "type": "Feature", "properties": { "title": "Philippines", "url": "https://en.wikipedia.org/wiki/Philippines", "y": 14.633, "x": 121.033 }, "geometry": { "type": "Point", "coordinates": [ 121.033, 14.633 ] } },
{ "type": "Feature", "properties": { "title": "Naval Sea Systems Command", "url": "https://en.wikipedia.org/wiki/Naval_Sea_Systems_Command", "y": 38.873917, "x": -76.995583 }, "geometry": { "type": "Point", "coordinates": [ -76.995583, 38.873917 ] } },
{ "type": "Feature", "properties": { "title": "Carderock Division of the Naval Surface Warfare Center", "url": "https://en.wikipedia.org/wiki/Naval_Surface_Warfare_Center_Carderock_Division", "y": 38.975, "x": -77.19167 }, "geometry": { "type": "Point", "coordinates": [ -77.19167, 38.975 ] } },
{ "type": "Feature", "properties": { "title": "Bayview, Idaho", "url": "https://en.wikipedia.org/wiki/Bayview,_Idaho", "y": 47.98028, "x": -116.56028 }, "geometry": { "type": "Point", "coordinates": [ -116.56028, 47.98028 ] } },
{ "type": "Feature", "properties": { "title": "Northwestern United States", "url": "https://en.wikipedia.org/wiki/Northwestern_United_States", "y": 46.0, "x": -117.0 }, "geometry": { "type": "Point", "coordinates": [ -117.0, 46.0 ] } },
{ "type": "Feature", "properties": { "title": "Indonesia", "url": "https://en.wikipedia.org/wiki/Indonesia", "y": -6.167, "x": 106.817 }, "geometry": { "type": "Point", "coordinates": [ 106.817, -6.167 ] } },
{ "type": "Feature", "properties": { "title": "Special Region of Yogyakarta", "url": "https://en.wikipedia.org/wiki/Special_Region_of_Yogyakarta", "y": -7.783, "x": 110.367 }, "geometry": { "type": "Point", "coordinates": [ 110.367, -7.783 ] } },
{ "type": "Feature", "properties": { "title": "Bukittinggi", "url": "https://en.wikipedia.org/wiki/Bukittinggi", "y": -0.30556, "x": 100.36917 }, "geometry": { "type": "Point", "coordinates": [ 100.36917, -0.30556 ] } },
{ "type": "Feature", "properties": { "title": "GEO600", "url": "https://en.wikipedia.org/wiki/GEO600", "y": 52.2469, "x": 9.8083 }, "geometry": { "type": "Point", "coordinates": [ 9.8083, 52.2469 ] } },
{ "type": "Feature", "properties": { "title": "Microsoft", "url": "https://en.wikipedia.org/wiki/Microsoft", "y": 47.63972, "x": -122.12833 }, "geometry": { "type": "Point", "coordinates": [ -122.12833, 47.63972 ] } },
{ "type": "Feature", "properties": { "title": "Aberdeen", "url": "https://en.wikipedia.org/wiki/Aberdeen", "y": 57.15, "x": -2.11 }, "geometry": { "type": "Point", "coordinates": [ -2.11, 57.15 ] } },
{ "type": "Feature", "properties": { "title": "Norway", "url": "https://en.wikipedia.org/wiki/Norway", "y": 59.933, "x": 10.683 }, "geometry": { "type": "Point", "coordinates": [ 10.683, 59.933 ] } },
{ "type": "Feature", "properties": { "title": "Puhinui railway station", "url": "https://en.wikipedia.org/wiki/Puhinui_railway_station", "y": -36.9897, "x": 174.8561 }, "geometry": { "type": "Point", "coordinates": [ 174.8561, -36.9897 ] } },
{ "type": "Feature", "properties": { "title": "Papatoetoe railway station", "url": "https://en.wikipedia.org/wiki/Papatoetoe_railway_station", "y": -36.9782, "x": 174.8498 }, "geometry": { "type": "Point", "coordinates": [ 174.8498, -36.9782 ] } },
{ "type": "Feature", "properties": { "title": "Manukau railway station", "url": "https://en.wikipedia.org/wiki/Manukau_railway_station", "y": -36.99417, "x": 174.87694 }, "geometry": { "type": "Point", "coordinates": [ 174.87694, -36.99417 ] } },
{ "type": "Feature", "properties": { "title": "Orakei railway station", "url": "https://en.wikipedia.org/wiki/Orakei_railway_station", "y": -36.862426, "x": 174.809553 }, "geometry": { "type": "Point", "coordinates": [ 174.809553, -36.862426 ] } },
{ "type": "Feature", "properties": { "title": "Middlemore railway station", "url": "https://en.wikipedia.org/wiki/Middlemore_railway_station", "y": -36.9633, "x": 174.8383 }, "geometry": { "type": "Point", "coordinates": [ 174.8383, -36.9633 ] } },
{ "type": "Feature", "properties": { "title": "Auckland", "url": "https://en.wikipedia.org/wiki/Auckland", "y": -36.84056, "x": 174.74 }, "geometry": { "type": "Point", "coordinates": [ 174.74, -36.84056 ] } },
{ "type": "Feature", "properties": { "title": "Tawhitokino Regional Park", "url": "https://en.wikipedia.org/wiki/Tawhitokino_Regional_Park", "y": -36.9437721, "x": 175.2087283 }, "geometry": { "type": "Point", "coordinates": [ 175.2087283, -36.9437721 ] } },
{ "type": "Feature", "properties": { "title": "Fiordland National Park", "url": "https://en.wikipedia.org/wiki/Fiordland_National_Park", "y": -45.417, "x": 167.717 }, "geometry": { "type": "Point", "coordinates": [ 167.717, -45.417 ] } },
{ "type": "Feature", "properties": { "title": "Lady Alice Falls", "url": "https://en.wikipedia.org/wiki/Lady_Alice_Falls", "y": -45.445, "x": 167.151833 }, "geometry": { "type": "Point", "coordinates": [ 167.151833, -45.445 ] } },
{ "type": "Feature", "properties": { "title": "Fiordland", "url": "https://en.wikipedia.org/wiki/Fiordland", "y": -45.4, "x": 167.2 }, "geometry": { "type": "Point", "coordinates": [ 167.2, -45.4 ] } },
{ "type": "Feature", "properties": { "title": "Tasman Sea", "url": "https://en.wikipedia.org/wiki/Tasman_Sea", "y": -40.0, "x": 160.0 }, "geometry": { "type": "Point", "coordinates": [ 160.0, -40.0 ] } },
{ "type": "Feature", "properties": { "title": "Aegean Sea", "url": "https://en.wikipedia.org/wiki/Aegean_Sea", "y": 36.467, "x": 22.95 }, "geometry": { "type": "Point", "coordinates": [ 22.95, 36.467 ] } },
{ "type": "Feature", "properties": { "title": "Malaysia Airlines Flight 17", "url": "https://en.wikipedia.org/wiki/Malaysia_Airlines_Flight_17", "y": 48.13806, "x": 38.63889 }, "geometry": { "type": "Point", "coordinates": [ 38.63889, 48.13806 ] } },
{ "type": "Feature", "properties": { "title": "Stockport Branch Canal", "url": "https://en.wikipedia.org/wiki/Stockport_Branch_Canal", "y": 53.480268, "x": -2.178115 }, "geometry": { "type": "Point", "coordinates": [ -2.178115, 53.480268 ] } },
{ "type": "Feature", "properties": { "title": "Chicoutimi—Le Fjord", "url": "https://en.wikipedia.org/wiki/Chicoutimi%E2%80%94Le_Fjord", "y": 48.14, "x": -70.6 }, "geometry": { "type": "Point", "coordinates": [ -70.6, 48.14 ] } },
{ "type": "Feature", "properties": { "title": "River Thames", "url": "https://en.wikipedia.org/wiki/River_Thames", "y": 51.4989, "x": 0.6087 }, "geometry": { "type": "Point", "coordinates": [ 0.6087, 51.4989 ] } },
{ "type": "Feature", "properties": { "title": "Latton, Wiltshire", "url": "https://en.wikipedia.org/wiki/Latton,_Wiltshire", "y": 51.66, "x": -1.867 }, "geometry": { "type": "Point", "coordinates": [ -1.867, 51.66 ] } },
{ "type": "Feature", "properties": { "title": "Wiltshire", "url": "https://en.wikipedia.org/wiki/Wiltshire", "y": 51.333, "x": -1.917 }, "geometry": { "type": "Point", "coordinates": [ -1.917, 51.333 ] } },
{ "type": "Feature", "properties": { "title": "Amesbury", "url": "https://en.wikipedia.org/wiki/Amesbury", "y": 51.173, "x": -1.78 }, "geometry": { "type": "Point", "coordinates": [ -1.78, 51.173 ] } },
{ "type": "Feature", "properties": { "title": "Trowbridge", "url": "https://en.wikipedia.org/wiki/Trowbridge", "y": 51.32, "x": -2.21 }, "geometry": { "type": "Point", "coordinates": [ -2.21, 51.32 ] } },
{ "type": "Feature", "properties": { "title": "River Biss", "url": "https://en.wikipedia.org/wiki/River_Biss", "y": 51.33667, "x": -2.21556 }, "geometry": { "type": "Point", "coordinates": [ -2.21556, 51.33667 ] } },
{ "type": "Feature", "properties": { "title": "Staverton, Wiltshire", "url": "https://en.wikipedia.org/wiki/Staverton,_Wiltshire", "y": 51.34, "x": -2.206 }, "geometry": { "type": "Point", "coordinates": [ -2.206, 51.34 ] } },
{ "type": "Feature", "properties": { "title": "Shenyang", "url": "https://en.wikipedia.org/wiki/Shenyang", "y": 41.8047, "x": 123.434 }, "geometry": { "type": "Point", "coordinates": [ 123.434, 41.8047 ] } },
{ "type": "Feature", "properties": { "title": "Taiyuan", "url": "https://en.wikipedia.org/wiki/Taiyuan", "y": 37.8704, "x": 112.5497 }, "geometry": { "type": "Point", "coordinates": [ 112.5497, 37.8704 ] } },
{ "type": "Feature", "properties": { "title": "Zunyi", "url": "https://en.wikipedia.org/wiki/Zunyi", "y": 27.7134, "x": 106.9201 }, "geometry": { "type": "Point", "coordinates": [ 106.9201, 27.7134 ] } },
{ "type": "Feature", "properties": { "title": "New Taipei City", "url": "https://en.wikipedia.org/wiki/New_Taipei", "y": 25.01111, "x": 121.44583 }, "geometry": { "type": "Point", "coordinates": [ 121.44583, 25.01111 ] } },
{ "type": "Feature", "properties": { "title": "Kaohsiung", "url": "https://en.wikipedia.org/wiki/Kaohsiung", "y": 22.633, "x": 120.267 }, "geometry": { "type": "Point", "coordinates": [ 120.267, 22.633 ] } },
{ "type": "Feature", "properties": { "title": "Taoyuan, Taiwan", "url": "https://en.wikipedia.org/wiki/Taoyuan,_Taiwan", "y": 24.991278, "x": 121.3143278 }, "geometry": { "type": "Point", "coordinates": [ 121.3143278, 24.991278 ] } },
{ "type": "Feature", "properties": { "title": "Yangmei District", "url": "https://en.wikipedia.org/wiki/Yangmei_District", "y": 24.917, "x": 121.15 }, "geometry": { "type": "Point", "coordinates": [ 121.15, 24.917 ] } },
{ "type": "Feature", "properties": { "title": "Dongshan District, Tainan", "url": "https://en.wikipedia.org/wiki/Dongshan_District,_Tainan", "y": 23.283389, "x": 120.443222 }, "geometry": { "type": "Point", "coordinates": [ 120.443222, 23.283389 ] } },
{ "type": "Feature", "properties": { "title": "Songshan District, Taipei", "url": "https://en.wikipedia.org/wiki/Songshan_District,_Taipei", "y": 25.059788, "x": 121.55727 }, "geometry": { "type": "Point", "coordinates": [ 121.55727, 25.059788 ] } },
{ "type": "Feature", "properties": { "title": "Luzhu District, Taoyuan", "url": "https://en.wikipedia.org/wiki/Luzhu_District,_Taoyuan", "y": 25.054083, "x": 121.288389 }, "geometry": { "type": "Point", "coordinates": [ 121.288389, 25.054083 ] } },
{ "type": "Feature", "properties": { "title": "Gongliao District", "url": "https://en.wikipedia.org/wiki/Gongliao_District", "y": 25.017, "x": 121.9 }, "geometry": { "type": "Point", "coordinates": [ 121.9, 25.017 ] } },
{ "type": "Feature", "properties": { "title": "Shimen District", "url": "https://en.wikipedia.org/wiki/Shimen_District", "y": 25.26861, "x": 121.57139 }, "geometry": { "type": "Point", "coordinates": [ 121.57139, 25.26861 ] } },
{ "type": "Feature", "properties": { "title": "East China Sea", "url": "https://en.wikipedia.org/wiki/East_China_Sea", "y": 30.0, "x": 125.0 }, "geometry": { "type": "Point", "coordinates": [ 125.0, 30.0 ] } },
{ "type": "Feature", "properties": { "title": "Chinatown, San Francisco", "url": "https://en.wikipedia.org/wiki/Chinatown,_San_Francisco", "y": 37.79417, "x": -122.40694 }, "geometry": { "type": "Point", "coordinates": [ -122.40694, 37.79417 ] } },
{ "type": "Feature", "properties": { "title": "Jackson Street (San Francisco)", "url": "https://en.wikipedia.org/wiki/Jackson_Street_(San_Francisco)", "y": 37.7960306, "x": -122.4066306 }, "geometry": { "type": "Point", "coordinates": [ -122.4066306, 37.7960306 ] } },
{ "type": "Feature", "properties": { "title": "Ko Olina Resort", "url": "https://en.wikipedia.org/wiki/Ko_Olina,_Hawaii", "y": 21.3375, "x": -158.11861 }, "geometry": { "type": "Point", "coordinates": [ -158.11861, 21.3375 ] } },
{ "type": "Feature", "properties": { "title": "African Airlines Association", "url": "https://en.wikipedia.org/wiki/African_Airlines_Association", "y": -1.325, "x": 36.83889 }, "geometry": { "type": "Point", "coordinates": [ 36.83889, -1.325 ] } },
{ "type": "Feature", "properties": { "title": "Moscow", "url": "https://en.wikipedia.org/wiki/Moscow", "y": 55.75583, "x": 37.61722 }, "geometry": { "type": "Point", "coordinates": [ 37.61722, 55.75583 ] } },
{ "type": "Feature", "properties": { "title": "Veliky Novgorod", "url": "https://en.wikipedia.org/wiki/Veliky_Novgorod", "y": 58.55, "x": 31.267 }, "geometry": { "type": "Point", "coordinates": [ 31.267, 58.55 ] } },
{ "type": "Feature", "properties": { "title": "St. John's, Newfoundland and Labrador", "url": "https://en.wikipedia.org/wiki/St._John%27s,_Newfoundland_and_Labrador", "y": 47.56278, "x": -52.71083 }, "geometry": { "type": "Point", "coordinates": [ -52.71083, 47.56278 ] } },
{ "type": "Feature", "properties": { "title": "Area code 264", "url": "https://en.wikipedia.org/wiki/Telephone_numbers_in_Anguilla", "y": 18.2, "x": -63.05 }, "geometry": { "type": "Point", "coordinates": [ -63.05, 18.2 ] } },
{ "type": "Feature", "properties": { "title": "Saint Barthélemy", "url": "https://en.wikipedia.org/wiki/Saint_Barthelemy", "y": 17.9, "x": -62.833 }, "geometry": { "type": "Point", "coordinates": [ -62.833, 17.9 ] } },
{ "type": "Feature", "properties": { "title": "Mediterranean Sea", "url": "https://en.wikipedia.org/wiki/Mediterranean", "y": 37.783, "x": 12.367 }, "geometry": { "type": "Point", "coordinates": [ 12.367, 37.783 ] } },
{ "type": "Feature", "properties": { "title": "Athens", "url": "https://en.wikipedia.org/wiki/Athens", "y": 37.98417, "x": 23.72806 }, "geometry": { "type": "Point", "coordinates": [ 23.72806, 37.98417 ] } },
{ "type": "Feature", "properties": { "title": "Crotone", "url": "https://en.wikipedia.org/wiki/Crotone", "y": 39.083, "x": 17.117 }, "geometry": { "type": "Point", "coordinates": [ 17.117, 39.083 ] } },
{ "type": "Feature", "properties": { "title": "Greece", "url": "https://en.wikipedia.org/wiki/Greece", "y": 39.0, "x": 22.0 }, "geometry": { "type": "Point", "coordinates": [ 22.0, 39.0 ] } },
{ "type": "Feature", "properties": { "title": "Third Hellenic Republic", "url": "https://en.wikipedia.org/wiki/Third_Hellenic_Republic", "y": 37.967, "x": 23.717 }, "geometry": { "type": "Point", "coordinates": [ 23.717, 37.967 ] } },
{ "type": "Feature", "properties": { "title": "Germany", "url": "https://en.wikipedia.org/wiki/Germany", "y": 52.517, "x": 13.383 }, "geometry": { "type": "Point", "coordinates": [ 13.383, 52.517 ] } },
{ "type": "Feature", "properties": { "title": "Azerbaijan", "url": "https://en.wikipedia.org/wiki/Azerbaijan", "y": 40.3, "x": 47.7 }, "geometry": { "type": "Point", "coordinates": [ 47.7, 40.3 ] } },
{ "type": "Feature", "properties": { "title": "Kyrgyzstan", "url": "https://en.wikipedia.org/wiki/Kyrgyzstan", "y": 42.867, "x": 74.6 }, "geometry": { "type": "Point", "coordinates": [ 74.6, 42.867 ] } },
{ "type": "Feature", "properties": { "title": "Mesopotamia", "url": "https://en.wikipedia.org/wiki/Mesopotamia", "y": 33.9414, "x": 41.17626 }, "geometry": { "type": "Point", "coordinates": [ 41.17626, 33.9414 ] } },
{ "type": "Feature", "properties": { "title": "Capitol Power Plant", "url": "https://en.wikipedia.org/wiki/Capitol_Power_Plant", "y": 38.882875, "x": -77.0075167 }, "geometry": { "type": "Point", "coordinates": [ -77.0075167, 38.882875 ] } },
{ "type": "Feature", "properties": { "title": "Library of Congress", "url": "https://en.wikipedia.org/wiki/Library_of_Congress", "y": 38.88861, "x": -77.00472 }, "geometry": { "type": "Point", "coordinates": [ -77.00472, 38.88861 ] } },
{ "type": "Feature", "properties": { "title": "Washington Union Station", "url": "https://en.wikipedia.org/wiki/Washington_Union_Station", "y": 38.89731, "x": -77.00626 }, "geometry": { "type": "Point", "coordinates": [ -77.00626, 38.89731 ] } },
{ "type": "Feature", "properties": { "title": "Point of Rocks station", "url": "https://en.wikipedia.org/wiki/Point_of_Rocks_station", "y": 39.273528, "x": -77.53333 }, "geometry": { "type": "Point", "coordinates": [ -77.53333, 39.273528 ] } },
{ "type": "Feature", "properties": { "title": "Garrett Park station", "url": "https://en.wikipedia.org/wiki/Garrett_Park_station", "y": 39.0389, "x": -77.0936 }, "geometry": { "type": "Point", "coordinates": [ -77.0936, 39.0389 ] } },
{ "type": "Feature", "properties": { "title": "Jiuzantou railway station", "url": "https://en.wikipedia.org/wiki/Jiuzantou_railway_station", "y": 24.720611, "x": 121.136194 }, "geometry": { "type": "Point", "coordinates": [ 121.136194, 24.720611 ] } },
{ "type": "Feature", "properties": { "title": "Hsinchu railway station", "url": "https://en.wikipedia.org/wiki/Hsinchu_railway_station", "y": 24.8016, "x": 120.9716 }, "geometry": { "type": "Point", "coordinates": [ 120.9716, 24.8016 ] } },
{ "type": "Feature", "properties": { "title": "Xinpu railway station", "url": "https://en.wikipedia.org/wiki/Xinpu_railway_station", "y": 24.540611, "x": 120.695472 }, "geometry": { "type": "Point", "coordinates": [ 120.695472, 24.540611 ] } },
{ "type": "Feature", "properties": { "title": "Fuzhou railway station (Taiwan)", "url": "https://en.wikipedia.org/wiki/Fuzhou_railway_station_(Taiwan)", "y": 25.004203, "x": 121.444693 }, "geometry": { "type": "Point", "coordinates": [ 121.444693, 25.004203 ] } },
{ "type": "Feature", "properties": { "title": "Yingge railway station", "url": "https://en.wikipedia.org/wiki/Yingge_railway_station", "y": 24.9545, "x": 121.3552 }, "geometry": { "type": "Point", "coordinates": [ 121.3552, 24.9545 ] } },
{ "type": "Feature", "properties": { "title": "Yingge District", "url": "https://en.wikipedia.org/wiki/Yingge_District", "y": 24.96139, "x": 121.34306 }, "geometry": { "type": "Point", "coordinates": [ 121.34306, 24.96139 ] } },
{ "type": "Feature", "properties": { "title": "Wuri District", "url": "https://en.wikipedia.org/wiki/Wuri_District", "y": 24.088667, "x": 120.632389 }, "geometry": { "type": "Point", "coordinates": [ 120.632389, 24.088667 ] } },
{ "type": "Feature", "properties": { "title": "Mingdao High School", "url": "https://en.wikipedia.org/wiki/Mingdao_High_School", "y": 24.1058, "x": 120.6364 }, "geometry": { "type": "Point", "coordinates": [ 120.6364, 24.1058 ] } },
{ "type": "Feature", "properties": { "title": "Monaco", "url": "https://en.wikipedia.org/wiki/Monaco", "y": 43.733, "x": 7.417 }, "geometry": { "type": "Point", "coordinates": [ 7.417, 43.733 ] } },
{ "type": "Feature", "properties": { "title": "Vals, Switzerland", "url": "https://en.wikipedia.org/wiki/Vals,_Switzerland", "y": 46.617, "x": 9.183 }, "geometry": { "type": "Point", "coordinates": [ 9.183, 46.617 ] } },
{ "type": "Feature", "properties": { "title": "Kellogg College, Oxford", "url": "https://en.wikipedia.org/wiki/Kellogg_College,_Oxford", "y": 51.764, "x": -1.26 }, "geometry": { "type": "Point", "coordinates": [ -1.26, 51.764 ] } },
{ "type": "Feature", "properties": { "title": "New College, Oxford", "url": "https://en.wikipedia.org/wiki/New_College,_Oxford", "y": 51.754277, "x": -1.251288 }, "geometry": { "type": "Point", "coordinates": [ -1.251288, 51.754277 ] } },
{ "type": "Feature", "properties": { "title": "Wallingford, Connecticut", "url": "https://en.wikipedia.org/wiki/Wallingford,_Connecticut", "y": 41.45639, "x": -72.80417 }, "geometry": { "type": "Point", "coordinates": [ -72.80417, 41.45639 ] } },
{ "type": "Feature", "properties": { "title": "Windham County, Connecticut", "url": "https://en.wikipedia.org/wiki/Windham_County,_Connecticut", "y": 41.83, "x": -71.99 }, "geometry": { "type": "Point", "coordinates": [ -71.99, 41.83 ] } },
{ "type": "Feature", "properties": { "title": "Naugatuck River", "url": "https://en.wikipedia.org/wiki/Naugatuck_River", "y": 41.31361, "x": -73.08056 }, "geometry": { "type": "Point", "coordinates": [ -73.08056, 41.31361 ] } },
{ "type": "Feature", "properties": { "title": "Tidal River, Victoria", "url": "https://en.wikipedia.org/wiki/Tidal_River,_Victoria", "y": -39.03056, "x": 146.32139 }, "geometry": { "type": "Point", "coordinates": [ 146.32139, -39.03056 ] } },
{ "type": "Feature", "properties": { "title": "Leongatha", "url": "https://en.wikipedia.org/wiki/Leongatha", "y": -38.48333, "x": 145.95 }, "geometry": { "type": "Point", "coordinates": [ 145.95, -38.48333 ] } },
{ "type": "Feature", "properties": { "title": "24th World Scout Jamboree", "url": "https://en.wikipedia.org/wiki/24th_World_Scout_Jamboree", "y": 37.92639, "x": -81.15 }, "geometry": { "type": "Point", "coordinates": [ -81.15, 37.92639 ] } },
{ "type": "Feature", "properties": { "title": "Chipping Norton", "url": "https://en.wikipedia.org/wiki/Chipping_Norton", "y": 51.94, "x": -1.55 }, "geometry": { "type": "Point", "coordinates": [ -1.55, 51.94 ] } },
{ "type": "Feature", "properties": { "title": "OX postcode area", "url": "https://en.wikipedia.org/wiki/OX_postcode_area", "y": 51.792, "x": -1.293 }, "geometry": { "type": "Point", "coordinates": [ -1.293, 51.792 ] } },
{ "type": "Feature", "properties": { "title": "Ardley, Oxfordshire", "url": "https://en.wikipedia.org/wiki/Ardley,_Oxfordshire", "y": 51.94, "x": -1.21 }, "geometry": { "type": "Point", "coordinates": [ -1.21, 51.94 ] } },
{ "type": "Feature", "properties": { "title": "Stoke Lyne", "url": "https://en.wikipedia.org/wiki/Stoke_Lyne", "y": 51.95, "x": -1.176 }, "geometry": { "type": "Point", "coordinates": [ -1.176, 51.95 ] } },
{ "type": "Feature", "properties": { "title": "Pyrenees", "url": "https://en.wikipedia.org/wiki/Pyrenees", "y": 42.667, "x": 1.0 }, "geometry": { "type": "Point", "coordinates": [ 1.0, 42.667 ] } },
{ "type": "Feature", "properties": { "title": "Pic del Port Vell", "url": "https://en.wikipedia.org/wiki/Pic_del_Port_Vell", "y": 42.56889, "x": 1.44528 }, "geometry": { "type": "Point", "coordinates": [ 1.44528, 42.56889 ] } },
{ "type": "Feature", "properties": { "title": "Lac d'Ansabère", "url": "https://en.wikipedia.org/wiki/Lake_of_Ansab%C3%A8re", "y": 42.887999, "x": -0.708573 }, "geometry": { "type": "Point", "coordinates": [ -0.708573, 42.887999 ] } },
{ "type": "Feature", "properties": { "title": "35th meridian east", "url": "https://en.wikipedia.org/wiki/35th_meridian_east", "y": -68.983, "x": 35.0 }, "geometry": { "type": "Point", "coordinates": [ 35.0, -68.983 ] } },
{ "type": "Feature", "properties": { "title": "Arctic Circle", "url": "https://en.wikipedia.org/wiki/Arctic_Circle", "y": 66.56528, "x": -136.30722 }, "geometry": { "type": "Point", "coordinates": [ -136.30722, 66.56528 ] } },
{ "type": "Feature", "properties": { "title": "Rovaniemi Airport", "url": "https://en.wikipedia.org/wiki/Rovaniemi_Airport", "y": 66.56167, "x": 25.83083 }, "geometry": { "type": "Point", "coordinates": [ 25.83083, 66.56167 ] } },
{ "type": "Feature", "properties": { "title": "Santa Park", "url": "https://en.wikipedia.org/wiki/Santa_Park", "y": 66.54361, "x": 25.84444 }, "geometry": { "type": "Point", "coordinates": [ 25.84444, 66.54361 ] } },
{ "type": "Feature", "properties": { "title": "Palestine (region)", "url": "https://en.wikipedia.org/wiki/Palestine_(region)", "y": 31.6253, "x": 35.1453 }, "geometry": { "type": "Point", "coordinates": [ 35.1453, 31.6253 ] } },
{ "type": "Feature", "properties": { "title": "Maghreb", "url": "https://en.wikipedia.org/wiki/Maghreb", "y": 30.0, "x": 5.0 }, "geometry": { "type": "Point", "coordinates": [ 5.0, 30.0 ] } },
{ "type": "Feature", "properties": { "title": "Prague", "url": "https://en.wikipedia.org/wiki/Prague", "y": 50.083, "x": 14.45 }, "geometry": { "type": "Point", "coordinates": [ 14.45, 50.083 ] } },
{ "type": "Feature", "properties": { "title": "Strahov Monastery", "url": "https://en.wikipedia.org/wiki/Strahov_Monastery", "y": 50.086, "x": 14.39 }, "geometry": { "type": "Point", "coordinates": [ 14.39, 50.086 ] } },
{ "type": "Feature", "properties": { "title": "Uruguay", "url": "https://en.wikipedia.org/wiki/Uruguay", "y": -34.883, "x": -56.167 }, "geometry": { "type": "Point", "coordinates": [ -56.167, -34.883 ] } },
{ "type": "Feature", "properties": { "title": "Bolivia", "url": "https://en.wikipedia.org/wiki/Bolivia", "y": -17.8, "x": -63.167 }, "geometry": { "type": "Point", "coordinates": [ -63.167, -17.8 ] } },
{ "type": "Feature", "properties": { "title": "São Paulo (state)", "url": "https://en.wikipedia.org/wiki/S%C3%A3o_Paulo_(state)", "y": -23.533, "x": -46.633 }, "geometry": { "type": "Point", "coordinates": [ -46.633, -23.533 ] } },
{ "type": "Feature", "properties": { "title": "Olsztyn", "url": "https://en.wikipedia.org/wiki/Olsztyn", "y": 53.77778, "x": 20.47917 }, "geometry": { "type": "Point", "coordinates": [ 20.47917, 53.77778 ] } },
{ "type": "Feature", "properties": { "title": "North Carolina", "url": "https://en.wikipedia.org/wiki/North_Carolina", "y": 35.5557, "x": -79.3877 }, "geometry": { "type": "Point", "coordinates": [ -79.3877, 35.5557 ] } },
{ "type": "Feature", "properties": { "title": "Sri Lanka", "url": "https://en.wikipedia.org/wiki/Sri_Lanka", "y": 6.933, "x": 79.867 }, "geometry": { "type": "Point", "coordinates": [ 79.867, 6.933 ] } },
{ "type": "Feature", "properties": { "title": "Kilinochchi District", "url": "https://en.wikipedia.org/wiki/Kilinochchi_District", "y": 9.417, "x": 80.417 }, "geometry": { "type": "Point", "coordinates": [ 80.417, 9.417 ] } },
{ "type": "Feature", "properties": { "title": "Western Province, Sri Lanka", "url": "https://en.wikipedia.org/wiki/Western_Province,_Sri_Lanka", "y": 6.833, "x": 80.083 }, "geometry": { "type": "Point", "coordinates": [ 80.083, 6.833 ] } },
{ "type": "Feature", "properties": { "title": "University of Sri Jayewardenepura", "url": "https://en.wikipedia.org/wiki/University_of_Sri_Jayewardenepura", "y": 6.85325278, "x": 79.9027667 }, "geometry": { "type": "Point", "coordinates": [ 79.9027667, 6.85325278 ] } },
{ "type": "Feature", "properties": { "title": "Marshall Islands", "url": "https://en.wikipedia.org/wiki/Marshall_Islands", "y": 7.117, "x": 171.067 }, "geometry": { "type": "Point", "coordinates": [ 171.067, 7.117 ] } },
{ "type": "Feature", "properties": { "title": "Cusco", "url": "https://en.wikipedia.org/wiki/Cusco", "y": -13.525, "x": -71.97222 }, "geometry": { "type": "Point", "coordinates": [ -71.97222, -13.525 ] } },
{ "type": "Feature", "properties": { "title": "World Wide Web Consortium", "url": "https://en.wikipedia.org/wiki/World_Wide_Web_Consortium", "y": 42.362056, "x": -71.090833 }, "geometry": { "type": "Point", "coordinates": [ -71.090833, 42.362056 ] } },
{ "type": "Feature", "properties": { "title": "University of Washington", "url": "https://en.wikipedia.org/wiki/University_of_Washington", "y": 47.65417, "x": -122.30806 }, "geometry": { "type": "Point", "coordinates": [ -122.30806, 47.65417 ] } },
{ "type": "Feature", "properties": { "title": "WREW", "url": "https://en.wikipedia.org/wiki/WREW", "y": 39.20028, "x": -84.52278 }, "geometry": { "type": "Point", "coordinates": [ -84.52278, 39.20028 ] } },
{ "type": "Feature", "properties": { "title": "WCNW", "url": "https://en.wikipedia.org/wiki/WCNW", "y": 39.3388889, "x": -84.525 }, "geometry": { "type": "Point", "coordinates": [ -84.525, 39.3388889 ] } },
{ "type": "Feature", "properties": { "title": "Ryerson University", "url": "https://en.wikipedia.org/wiki/Ryerson_Polytechnic_University", "y": 43.6577361, "x": -79.3801778 }, "geometry": { "type": "Point", "coordinates": [ -79.3801778, 43.6577361 ] } },
{ "type": "Feature", "properties": { "title": "Kappa Alpha Psi", "url": "https://en.wikipedia.org/wiki/Kappa_Alpha_Psi", "y": 39.98856, "x": -75.15611 }, "geometry": { "type": "Point", "coordinates": [ -75.15611, 39.98856 ] } },
{ "type": "Feature", "properties": { "title": "Tarakan", "url": "https://en.wikipedia.org/wiki/Tarakan", "y": 3.3, "x": 117.63333 }, "geometry": { "type": "Point", "coordinates": [ 117.63333, 3.3 ] } },
{ "type": "Feature", "properties": { "title": "Sakhalin", "url": "https://en.wikipedia.org/wiki/Sakhalin", "y": 51.0, "x": 143.0 }, "geometry": { "type": "Point", "coordinates": [ 143.0, 51.0 ] } },
{ "type": "Feature", "properties": { "title": "Isla Grande de Tierra del Fuego", "url": "https://en.wikipedia.org/wiki/Isla_Grande_de_Tierra_del_Fuego", "y": -54.0, "x": -69.0 }, "geometry": { "type": "Point", "coordinates": [ -69.0, -54.0 ] } },
{ "type": "Feature", "properties": { "title": "Victoria Island", "url": "https://en.wikipedia.org/wiki/Victoria_Island_(Canada)", "y": 71.61722, "x": -117.86917 }, "geometry": { "type": "Point", "coordinates": [ -117.86917, 71.61722 ] } },
{ "type": "Feature", "properties": { "title": "Copenhagen Airport", "url": "https://en.wikipedia.org/wiki/Copenhagen_Airport", "y": 55.61806, "x": 12.65611 }, "geometry": { "type": "Point", "coordinates": [ 12.65611, 55.61806 ] } },
{ "type": "Feature", "properties": { "title": "Frederiksberg Church", "url": "https://en.wikipedia.org/wiki/Frederiksberg_Church", "y": 55.674278, "x": 12.53278 }, "geometry": { "type": "Point", "coordinates": [ 12.53278, 55.674278 ] } },
{ "type": "Feature", "properties": { "title": "Copenhagen Zoo", "url": "https://en.wikipedia.org/wiki/Copenhagen_Zoo", "y": 55.67278, "x": 12.52139 }, "geometry": { "type": "Point", "coordinates": [ 12.52139, 55.67278 ] } },
{ "type": "Feature", "properties": { "title": "New Jersey's 4th congressional district", "url": "https://en.wikipedia.org/wiki/New_Jersey%27s_4th_congressional_district", "y": 40.16, "x": -74.4242 }, "geometry": { "type": "Point", "coordinates": [ -74.4242, 40.16 ] } },
{ "type": "Feature", "properties": { "title": "Roanoke, Virginia", "url": "https://en.wikipedia.org/wiki/Roanoke,_Virginia", "y": 37.267, "x": -79.933 }, "geometry": { "type": "Point", "coordinates": [ -79.933, 37.267 ] } },
{ "type": "Feature", "properties": { "title": "Amelia County, Virginia", "url": "https://en.wikipedia.org/wiki/Amelia_County,_Virginia", "y": 37.34, "x": -77.98 }, "geometry": { "type": "Point", "coordinates": [ -77.98, 37.34 ] } },
{ "type": "Feature", "properties": { "title": "Page County, Virginia", "url": "https://en.wikipedia.org/wiki/Page_County,_Virginia", "y": 38.61, "x": -78.48 }, "geometry": { "type": "Point", "coordinates": [ -78.48, 38.61 ] } },
{ "type": "Feature", "properties": { "title": "Austria-Hungary", "url": "https://en.wikipedia.org/wiki/Austria-Hungary", "y": 48.2, "x": 16.35 }, "geometry": { "type": "Point", "coordinates": [ 16.35, 48.2 ] } },
{ "type": "Feature", "properties": { "title": "Burgenland", "url": "https://en.wikipedia.org/wiki/Burgenland", "y": 47.5, "x": 16.417 }, "geometry": { "type": "Point", "coordinates": [ 16.417, 47.5 ] } },
{ "type": "Feature", "properties": { "title": "Veneto", "url": "https://en.wikipedia.org/wiki/Veneto", "y": 45.73333, "x": 11.85 }, "geometry": { "type": "Point", "coordinates": [ 11.85, 45.73333 ] } },
{ "type": "Feature", "properties": { "title": "South Region, Brazil", "url": "https://en.wikipedia.org/wiki/Southern_Region,_Brazil", "y": -25.433, "x": -49.267 }, "geometry": { "type": "Point", "coordinates": [ -49.267, -25.433 ] } },
{ "type": "Feature", "properties": { "title": "Brazil", "url": "https://en.wikipedia.org/wiki/Brazil", "y": -15.75, "x": -47.95 }, "geometry": { "type": "Point", "coordinates": [ -47.95, -15.75 ] } },
{ "type": "Feature", "properties": { "title": "50th parallel south", "url": "https://en.wikipedia.org/wiki/50th_parallel_south", "y": -50.0, "x": -67.9 }, "geometry": { "type": "Point", "coordinates": [ -67.9, -50.0 ] } },
{ "type": "Feature", "properties": { "title": "40th parallel south", "url": "https://en.wikipedia.org/wiki/40th_parallel_south", "y": -40.0, "x": -62.333 }, "geometry": { "type": "Point", "coordinates": [ -62.333, -40.0 ] } },
{ "type": "Feature", "properties": { "title": "20th meridian west", "url": "https://en.wikipedia.org/wiki/20th_meridian_west", "y": -73.417, "x": -20.0 }, "geometry": { "type": "Point", "coordinates": [ -20.0, -73.417 ] } },
{ "type": "Feature", "properties": { "title": "120th meridian east", "url": "https://en.wikipedia.org/wiki/120th_meridian_east", "y": -66.867, "x": 120.0 }, "geometry": { "type": "Point", "coordinates": [ 120.0, -66.867 ] } },
{ "type": "Feature", "properties": { "title": "South China Sea", "url": "https://en.wikipedia.org/wiki/South_China_Sea", "y": -3.0, "x": 110.317 }, "geometry": { "type": "Point", "coordinates": [ 110.317, -3.0 ] } },
{ "type": "Feature", "properties": { "title": "Paracel Islands", "url": "https://en.wikipedia.org/wiki/Amphitrite_Group", "y": 15.783, "x": 111.2 }, "geometry": { "type": "Point", "coordinates": [ 111.2, 15.783 ] } },
{ "type": "Feature", "properties": { "title": "Cambodia", "url": "https://en.wikipedia.org/wiki/Cambodia", "y": 11.55, "x": 104.917 }, "geometry": { "type": "Point", "coordinates": [ 104.917, 11.55 ] } },
{ "type": "Feature", "properties": { "title": "Guangdong", "url": "https://en.wikipedia.org/wiki/Guangdong", "y": 23.4, "x": 113.5 }, "geometry": { "type": "Point", "coordinates": [ 113.5, 23.4 ] } },
{ "type": "Feature", "properties": { "title": "Kinshasa", "url": "https://en.wikipedia.org/wiki/Kinshasa", "y": -4.325, "x": 15.32222 }, "geometry": { "type": "Point", "coordinates": [ 15.32222, -4.325 ] } },
{ "type": "Feature", "properties": { "title": "Ituri Province", "url": "https://en.wikipedia.org/wiki/Kibali-Ituri", "y": 1.833, "x": 29.5 }, "geometry": { "type": "Point", "coordinates": [ 29.5, 1.833 ] } },
{ "type": "Feature", "properties": { "title": "North Kivu", "url": "https://en.wikipedia.org/wiki/North_Kivu", "y": -0.567, "x": 28.7 }, "geometry": { "type": "Point", "coordinates": [ 28.7, -0.567 ] } },
{ "type": "Feature", "properties": { "title": "Beni, Democratic Republic of the Congo", "url": "https://en.wikipedia.org/wiki/Beni,_Democratic_Republic_of_the_Congo", "y": 0.5, "x": 29.467 }, "geometry": { "type": "Point", "coordinates": [ 29.467, 0.5 ] } },
{ "type": "Feature", "properties": { "title": "Masisi", "url": "https://en.wikipedia.org/wiki/Masisi", "y": -1.4, "x": 28.81806 }, "geometry": { "type": "Point", "coordinates": [ 28.81806, -1.4 ] } },
{ "type": "Feature", "properties": { "title": "Democratic Republic of the Congo", "url": "https://en.wikipedia.org/wiki/Democratic_Republic_of_the_Congo", "y": -4.317, "x": 15.317 }, "geometry": { "type": "Point", "coordinates": [ 15.317, -4.317 ] } },
{ "type": "Feature", "properties": { "title": "Sirte", "url": "https://en.wikipedia.org/wiki/Sirte", "y": 31.205, "x": 16.58861 }, "geometry": { "type": "Point", "coordinates": [ 16.58861, 31.205 ] } },
{ "type": "Feature", "properties": { "title": "Damascus", "url": "https://en.wikipedia.org/wiki/Damascus", "y": 33.51306, "x": 36.29194 }, "geometry": { "type": "Point", "coordinates": [ 36.29194, 33.51306 ] } },
{ "type": "Feature", "properties": { "title": "Institut de France", "url": "https://en.wikipedia.org/wiki/Institut_de_France", "y": 48.8572417, "x": 2.3369028 }, "geometry": { "type": "Point", "coordinates": [ 2.3369028, 48.8572417 ] } },
{ "type": "Feature", "properties": { "title": "Musée Marmottan Monet", "url": "https://en.wikipedia.org/wiki/Mus%C3%A9e_Marmottan_Monet", "y": 48.8593, "x": 2.2673 }, "geometry": { "type": "Point", "coordinates": [ 2.2673, 48.8593 ] } },
{ "type": "Feature", "properties": { "title": "American Antiquarian Society", "url": "https://en.wikipedia.org/wiki/American_Antiquarian_Society", "y": 42.27722, "x": -71.81083 }, "geometry": { "type": "Point", "coordinates": [ -71.81083, 42.27722 ] } },
{ "type": "Feature", "properties": { "title": "List of tallest buildings in Worcester, Massachusetts", "url": "https://en.wikipedia.org/wiki/List_of_tallest_buildings_in_Worcester,_Massachusetts", "y": 42.260315, "x": -71.804919 }, "geometry": { "type": "Point", "coordinates": [ -71.804919, 42.260315 ] } },
{ "type": "Feature", "properties": { "title": "World Figure Skating Hall of Fame", "url": "https://en.wikipedia.org/wiki/World_Figure_Skating_Hall_of_Fame", "y": 38.79379, "x": -104.84885 }, "geometry": { "type": "Point", "coordinates": [ -104.84885, 38.79379 ] } },
{ "type": "Feature", "properties": { "title": "Grand Ole Opry", "url": "https://en.wikipedia.org/wiki/Grand_Ole_Opry", "y": 36.20667, "x": -86.69222 }, "geometry": { "type": "Point", "coordinates": [ -86.69222, 36.20667 ] } },
{ "type": "Feature", "properties": { "title": "Hank Williams", "url": "https://en.wikipedia.org/wiki/Hank_Williams", "y": 32.3847, "x": -86.2913 }, "geometry": { "type": "Point", "coordinates": [ -86.2913, 32.3847 ] } },
{ "type": "Feature", "properties": { "title": "Lubbock, Texas", "url": "https://en.wikipedia.org/wiki/Lubbock,_Texas", "y": 33.57778, "x": -101.89 }, "geometry": { "type": "Point", "coordinates": [ -101.89, 33.57778 ] } },
{ "type": "Feature", "properties": { "title": "Austin, Texas", "url": "https://en.wikipedia.org/wiki/Austin,_Texas", "y": 30.26722, "x": -97.74306 }, "geometry": { "type": "Point", "coordinates": [ -97.74306, 30.26722 ] } },
{ "type": "Feature", "properties": { "title": "KTWF", "url": "https://en.wikipedia.org/wiki/KTWF", "y": 33.6843333, "x": -98.6127222 }, "geometry": { "type": "Point", "coordinates": [ -98.6127222, 33.6843333 ] } },
{ "type": "Feature", "properties": { "title": "KPET", "url": "https://en.wikipedia.org/wiki/KPET", "y": 32.7075, "x": -101.93639 }, "geometry": { "type": "Point", "coordinates": [ -101.93639, 32.7075 ] } },
{ "type": "Feature", "properties": { "title": "KJCS (FM)", "url": "https://en.wikipedia.org/wiki/KJCS_(FM)", "y": 31.43325, "x": -94.817722 }, "geometry": { "type": "Point", "coordinates": [ -94.817722, 31.43325 ] } },
{ "type": "Feature", "properties": { "title": "KAFX-FM", "url": "https://en.wikipedia.org/wiki/KAFX-FM", "y": 31.408, "x": -94.765 }, "geometry": { "type": "Point", "coordinates": [ -94.765, 31.408 ] } },
{ "type": "Feature", "properties": { "title": "KRBA", "url": "https://en.wikipedia.org/wiki/KRBA", "y": 31.3347222, "x": -94.6694444 }, "geometry": { "type": "Point", "coordinates": [ -94.6694444, 31.3347222 ] } },
{ "type": "Feature", "properties": { "title": "KSML (AM)", "url": "https://en.wikipedia.org/wiki/KSML_(AM)", "y": 31.3347222, "x": -94.6694444 }, "geometry": { "type": "Point", "coordinates": [ -94.6694444, 31.3347222 ] } },
{ "type": "Feature", "properties": { "title": "KSML-FM", "url": "https://en.wikipedia.org/wiki/KSML-FM", "y": 31.3347222, "x": -94.6694444 }, "geometry": { "type": "Point", "coordinates": [ -94.6694444, 31.3347222 ] } },
{ "type": "Feature", "properties": { "title": "KROB", "url": "https://en.wikipedia.org/wiki/KROB", "y": 27.7775, "x": -97.6319444 }, "geometry": { "type": "Point", "coordinates": [ -97.6319444, 27.7775 ] } },
{ "type": "Feature", "properties": { "title": "KIBL", "url": "https://en.wikipedia.org/wiki/KIBL", "y": 28.38556, "x": -97.72833 }, "geometry": { "type": "Point", "coordinates": [ -97.72833, 28.38556 ] } },
{ "type": "Feature", "properties": { "title": "KILM", "url": "https://en.wikipedia.org/wiki/KVVT", "y": 34.21, "x": -118.067278 }, "geometry": { "type": "Point", "coordinates": [ -118.067278, 34.21 ] } },
{ "type": "Feature", "properties": { "title": "WXPX-TV", "url": "https://en.wikipedia.org/wiki/WXPX-TV", "y": 27.819667, "x": -82.26056 }, "geometry": { "type": "Point", "coordinates": [ -82.26056, 27.819667 ] } },
{ "type": "Feature", "properties": { "title": "Anahuac, Texas", "url": "https://en.wikipedia.org/wiki/Anahuac,_Texas", "y": 29.76861, "x": -94.67917 }, "geometry": { "type": "Point", "coordinates": [ -94.67917, 29.76861 ] } },
{ "type": "Feature", "properties": { "title": "Seguin, Texas", "url": "https://en.wikipedia.org/wiki/Seguin,_Texas", "y": 29.57444, "x": -97.96528 }, "geometry": { "type": "Point", "coordinates": [ -97.96528, 29.57444 ] } },
{ "type": "Feature", "properties": { "title": "San Antonio", "url": "https://en.wikipedia.org/wiki/San_Antonio", "y": 29.425, "x": -98.49389 }, "geometry": { "type": "Point", "coordinates": [ -98.49389, 29.425 ] } },
{ "type": "Feature", "properties": { "title": "SeaWorld San Antonio", "url": "https://en.wikipedia.org/wiki/SeaWorld_San_Antonio", "y": 29.4584, "x": -98.6998 }, "geometry": { "type": "Point", "coordinates": [ -98.6998, 29.4584 ] } },
{ "type": "Feature", "properties": { "title": "Columbia River", "url": "https://en.wikipedia.org/wiki/Columbia_River", "y": 46.24417, "x": -124.05806 }, "geometry": { "type": "Point", "coordinates": [ -124.05806, 46.24417 ] } },
{ "type": "Feature", "properties": { "title": "Eugene, Oregon", "url": "https://en.wikipedia.org/wiki/Eugene,_Oregon", "y": 44.05194, "x": -123.08667 }, "geometry": { "type": "Point", "coordinates": [ -123.08667, 44.05194 ] } },
{ "type": "Feature", "properties": { "title": "The Register-Guard", "url": "https://en.wikipedia.org/wiki/The_Register-Guard", "y": 44.086464, "x": -123.052628 }, "geometry": { "type": "Point", "coordinates": [ -123.052628, 44.086464 ] } },
{ "type": "Feature", "properties": { "title": "Corbin, Kentucky", "url": "https://en.wikipedia.org/wiki/Corbin,_Kentucky", "y": 36.94167, "x": -84.09556 }, "geometry": { "type": "Point", "coordinates": [ -84.09556, 36.94167 ] } },
{ "type": "Feature", "properties": { "title": "Wofford, Kentucky", "url": "https://en.wikipedia.org/wiki/Wofford,_Kentucky", "y": 36.7825, "x": -84.13528 }, "geometry": { "type": "Point", "coordinates": [ -84.13528, 36.7825 ] } },
{ "type": "Feature", "properties": { "title": "Whitley County, Kentucky", "url": "https://en.wikipedia.org/wiki/Whitley_County,_Kentucky", "y": 36.76, "x": -84.15 }, "geometry": { "type": "Point", "coordinates": [ -84.15, 36.76 ] } },
{ "type": "Feature", "properties": { "title": "Western United States", "url": "https://en.wikipedia.org/wiki/Western_United_States", "y": 40.0, "x": -113.0 }, "geometry": { "type": "Point", "coordinates": [ -113.0, 40.0 ] } },
{ "type": "Feature", "properties": { "title": "Red River of the South", "url": "https://en.wikipedia.org/wiki/Red_River_of_the_South", "y": 31.01944, "x": -91.74778 }, "geometry": { "type": "Point", "coordinates": [ -91.74778, 31.01944 ] } },
{ "type": "Feature", "properties": { "title": "SpaceX", "url": "https://en.wikipedia.org/wiki/SpaceX", "y": 33.9207, "x": -118.3278 }, "geometry": { "type": "Point", "coordinates": [ -118.3278, 33.9207 ] } },
{ "type": "Feature", "properties": { "title": "Florida", "url": "https://en.wikipedia.org/wiki/Florida", "y": 28.6305, "x": -82.4497 }, "geometry": { "type": "Point", "coordinates": [ -82.4497, 28.6305 ] } },
{ "type": "Feature", "properties": { "title": "Connecticut", "url": "https://en.wikipedia.org/wiki/Connecticut", "y": 41.6, "x": -72.7 }, "geometry": { "type": "Point", "coordinates": [ -72.7, 41.6 ] } },
{ "type": "Feature", "properties": { "title": "Superior (proposed U.S. state)", "url": "https://en.wikipedia.org/wiki/Superior_(proposed_state)", "y": 46.0, "x": -87.0 }, "geometry": { "type": "Point", "coordinates": [ -87.0, 46.0 ] } },
{ "type": "Feature", "properties": { "title": "Superior (proposed U.S. state)", "url": "https://en.wikipedia.org/wiki/Superior_(proposed_U.S._state)", "y": 46.0, "x": -87.0 }, "geometry": { "type": "Point", "coordinates": [ -87.0, 46.0 ] } },
{ "type": "Feature", "properties": { "title": "Upper Peninsula of Michigan", "url": "https://en.wikipedia.org/wiki/Upper_Peninsula_of_Michigan", "y": 46.23333, "x": -86.35 }, "geometry": { "type": "Point", "coordinates": [ -86.35, 46.23333 ] } },
{ "type": "Feature", "properties": { "title": "Northern Michigan", "url": "https://en.wikipedia.org/wiki/Northern_Michigan", "y": 44.75, "x": -84.75 }, "geometry": { "type": "Point", "coordinates": [ -84.75, 44.75 ] } },
{ "type": "Feature", "properties": { "title": "Grand Duchy of Tuscany", "url": "https://en.wikipedia.org/wiki/Grand_Duchy_of_Tuscany", "y": 43.0, "x": 11.0 }, "geometry": { "type": "Point", "coordinates": [ 11.0, 43.0 ] } },
{ "type": "Feature", "properties": { "title": "French Third Republic", "url": "https://en.wikipedia.org/wiki/French_Third_Republic", "y": 48.817, "x": 2.483 }, "geometry": { "type": "Point", "coordinates": [ 2.483, 48.817 ] } },
{ "type": "Feature", "properties": { "title": "Princeton University Press", "url": "https://en.wikipedia.org/wiki/Princeton_University_Press", "y": 40.349944, "x": -74.653694 }, "geometry": { "type": "Point", "coordinates": [ -74.653694, 40.349944 ] } },
{ "type": "Feature", "properties": { "title": "Tiger Inn", "url": "https://en.wikipedia.org/wiki/Tiger_Inn", "y": 40.348944, "x": -74.652278 }, "geometry": { "type": "Point", "coordinates": [ -74.652278, 40.348944 ] } },
{ "type": "Feature", "properties": { "title": "University of East Anglia", "url": "https://en.wikipedia.org/wiki/University_of_East_Anglia", "y": 52.62167, "x": 1.24167 }, "geometry": { "type": "Point", "coordinates": [ 1.24167, 52.62167 ] } },
{ "type": "Feature", "properties": { "title": "University of Essex", "url": "https://en.wikipedia.org/wiki/University_of_Essex", "y": 51.87633, "x": 0.94487 }, "geometry": { "type": "Point", "coordinates": [ 0.94487, 51.87633 ] } },
{ "type": "Feature", "properties": { "title": "Egypt", "url": "https://en.wikipedia.org/wiki/Egypt", "y": 30.033, "x": 31.217 }, "geometry": { "type": "Point", "coordinates": [ 31.217, 30.033 ] } },
{ "type": "Feature", "properties": { "title": "Chad", "url": "https://en.wikipedia.org/wiki/Chad", "y": 12.1, "x": 16.033 }, "geometry": { "type": "Point", "coordinates": [ 16.033, 12.1 ] } },
{ "type": "Feature", "properties": { "title": "The Gambia", "url": "https://en.wikipedia.org/wiki/Gambia", "y": 13.467, "x": -16.6 }, "geometry": { "type": "Point", "coordinates": [ -16.6, 13.467 ] } },
{ "type": "Feature", "properties": { "title": "Abidjan", "url": "https://en.wikipedia.org/wiki/Abidjan", "y": 5.317, "x": -4.033 }, "geometry": { "type": "Point", "coordinates": [ -4.033, 5.317 ] } },
{ "type": "Feature", "properties": { "title": "International Monetary Fund", "url": "https://en.wikipedia.org/wiki/International_Monetary_Fund", "y": 38.89889, "x": -77.04417 }, "geometry": { "type": "Point", "coordinates": [ -77.04417, 38.89889 ] } },
{ "type": "Feature", "properties": { "title": "Orem, Utah", "url": "https://en.wikipedia.org/wiki/Orem,_Utah", "y": 40.29889, "x": -111.69639 }, "geometry": { "type": "Point", "coordinates": [ -111.69639, 40.29889 ] } },
{ "type": "Feature", "properties": { "title": "New York City", "url": "https://en.wikipedia.org/wiki/New_York_City", "y": 40.71278, "x": -74.00611 }, "geometry": { "type": "Point", "coordinates": [ -74.00611, 40.71278 ] } },
{ "type": "Feature", "properties": { "title": "Hermon, New York", "url": "https://en.wikipedia.org/wiki/Hermon_(town),_New_York", "y": 44.46694, "x": -75.22917 }, "geometry": { "type": "Point", "coordinates": [ -75.22917, 44.46694 ] } },
{ "type": "Feature", "properties": { "title": "Hermon (hamlet), New York", "url": "https://en.wikipedia.org/wiki/Hermon_(hamlet),_New_York", "y": 44.46667, "x": -75.22917 }, "geometry": { "type": "Point", "coordinates": [ -75.22917, 44.46667 ] } },
{ "type": "Feature", "properties": { "title": "Brasher Falls, New York", "url": "https://en.wikipedia.org/wiki/Brasher_Falls,_New_York", "y": 44.8075, "x": -74.77417 }, "geometry": { "type": "Point", "coordinates": [ -74.77417, 44.8075 ] } },
{ "type": "Feature", "properties": { "title": "Gouverneur, New York", "url": "https://en.wikipedia.org/wiki/Gouverneur,_New_York", "y": 44.33444, "x": -75.46639 }, "geometry": { "type": "Point", "coordinates": [ -75.46639, 44.33444 ] } },
{ "type": "Feature", "properties": { "title": "Rensselaer Falls, New York", "url": "https://en.wikipedia.org/wiki/Rensselaer_Falls,_New_York", "y": 44.59194, "x": -75.31917 }, "geometry": { "type": "Point", "coordinates": [ -75.31917, 44.59194 ] } },
{ "type": "Feature", "properties": { "title": "Waddington, New York", "url": "https://en.wikipedia.org/wiki/Waddington,_New_York", "y": 44.86389, "x": -75.19694 }, "geometry": { "type": "Point", "coordinates": [ -75.19694, 44.86389 ] } },
{ "type": "Feature", "properties": { "title": "Canton (village), New York", "url": "https://en.wikipedia.org/wiki/Canton_(village),_New_York", "y": 44.5975, "x": -75.17111 }, "geometry": { "type": "Point", "coordinates": [ -75.17111, 44.5975 ] } },
{ "type": "Feature", "properties": { "title": "Massena (village), New York", "url": "https://en.wikipedia.org/wiki/Massena_(village),_New_York", "y": 44.93028, "x": -74.89083 }, "geometry": { "type": "Point", "coordinates": [ -74.89083, 44.93028 ] } },
{ "type": "Feature", "properties": { "title": "Norfolk (CDP), New York", "url": "https://en.wikipedia.org/wiki/Norfolk_(CDP),_New_York", "y": 44.79917, "x": -74.99083 }, "geometry": { "type": "Point", "coordinates": [ -74.99083, 44.79917 ] } },
{ "type": "Feature", "properties": { "title": "Eastern Band of Cherokee Indians", "url": "https://en.wikipedia.org/wiki/Eastern_Band_of_Cherokee_Indians", "y": 35.47861, "x": -83.27222 }, "geometry": { "type": "Point", "coordinates": [ -83.27222, 35.47861 ] } },
{ "type": "Feature", "properties": { "title": "Columbia University", "url": "https://en.wikipedia.org/wiki/Columbia_University", "y": 40.8075, "x": -73.96194 }, "geometry": { "type": "Point", "coordinates": [ -73.96194, 40.8075 ] } },
{ "type": "Feature", "properties": { "title": "List College", "url": "https://en.wikipedia.org/wiki/List_College", "y": 40.811859, "x": -73.960723 }, "geometry": { "type": "Point", "coordinates": [ -73.960723, 40.811859 ] } },
{ "type": "Feature", "properties": { "title": "Columbia University School of Social Work", "url": "https://en.wikipedia.org/wiki/Columbia_University_School_of_Social_Work", "y": 40.8102528, "x": -73.9583528 },